time,RPC,RPF,RPT,RMC,RMF,RMT,RAC,RAF,RAT,LPC,LPF,LPT,LMC,LMF,LMT,LAC,LAF,LAT,imu_roll,imu_pitch,imu_yaw,mantis_x,mantis_y,mantis_z
0.01,-0.592147310230468,0.979155451082408,-2.428650615256656,-0.007852689769532,0.620844548917592,-2.371349384743344,0.607852689769532,0.979155451082408,-2.428650615256656,0.607852689769532,0.620844548917592,-2.371349384743344,-0.007852689769532,0.979155451082408,-2.428650615256656,-0.592147310230468,0.620844548917592,-2.371349384743344,-3.613270811328954e-06,8.382427031275424e-05,-3.1353146716169102,-0.0013647059570735,-0.0370661714378462,0.1258926359608785
0.02,-0.5843023701176716,0.9762746119991612,-2.4273493486098867,-0.0156976298823283,0.623725388000839,-2.372650651390113,0.6156976298823283,0.9762746119991612,-2.4273493486098867,0.6156976298823283,0.623725388000839,-2.372650651390113,-0.0156976298823283,0.9762746119991612,-2.4273493486098867,-0.5843023701176716,0.623725388000839,-2.372650651390113,1.5929232640311375e-06,4.313284553622676e-05,-3.1342738676413835,-0.0006959279590833,-0.037042704357269,0.1222578864934488
0.03,-0.5764729216703715,0.9732198111557628,-2.4260210914579665,-0.0235270783296285,0.6267801888442373,-2.3739789085420333,0.6235270783296285,0.9732198111557628,-2.4260210914579665,0.6235270783296285,0.6267801888442373,-2.3739789085420333,-0.0235270783296285,0.9732198111557628,-2.4260210914579665,-0.5764729216703715,0.6267801888442373,-2.3739789085420333,0.0001352770897899,6.598892720945354e-05,-3.133539823261672,-0.0001120190790226,-0.0386963077495196,0.1229676259614147
0.04,-0.5686666916089239,0.9699940632718352,-2.4246671546303418,-0.031333308391076,0.630005936728165,-2.375332845369658,0.631333308391076,0.9699940632718352,-2.4246671546303418,0.631333308391076,0.630005936728165,-2.375332845369658,-0.031333308391076,0.9699940632718352,-2.4246671546303418,-0.5686666916089239,0.630005936728165,-2.375332845369658,0.0016321711514747,6.802909854361214e-05,-3.13331866005796,-4.343065854002911e-05,-0.0470060076441629,0.1234785436536016
0.05,-0.5608913837399423,0.96660055177109,-2.4232888742991983,-0.0391086162600577,0.6333994482289101,-2.3767111257008016,0.6391086162600577,0.96660055177109,-2.4232888742991983,0.6391086162600577,0.6333994482289101,-2.3767111257008016,-0.0391086162600577,0.96660055177109,-2.4232888742991983,-0.5608913837399423,0.6333994482289101,-2.3767111257008016,0.0027076498577589,-0.0003285565917677,-3.132746282204673,-0.0003981080266555,-0.0533462548601229,0.1238858409560214
0.06,-0.5531546713535689,0.9630426256396752,-2.421887610660822,-0.0468453286464311,0.6369573743603248,-2.378112389339178,0.6468453286464311,0.9630426256396752,-2.421887610660822,0.6468453286464311,0.6369573743603248,-2.378112389339178,-0.0468453286464311,0.9630426256396752,-2.421887610660822,-0.5531546713535689,0.6369573743603248,-2.378112389339178,0.0021300585966683,-0.0007864224866097,-3.131016093748465,-0.001082804992131,-0.0588916673827897,0.1250835256700605
0.07,-0.5454641896508643,0.9593237961211288,-2.420464746593246,-0.0545358103491356,0.6406762038788714,-2.379535253406754,0.6545358103491357,0.9593237961211288,-2.420464746593246,0.6545358103491357,0.6406762038788714,-2.379535253406754,-0.0545358103491356,0.9593237961211288,-2.420464746593246,-0.5454641896508643,0.6406762038788714,-2.379535253406754,-0.0049895892813001,-0.0011228592574646,-3.128633528341829,-0.0021488996646174,-0.0694248533136159,0.1262008703014026
0.08,-0.5378275282087863,0.9554477332512058,-2.4190216862915213,-0.0621724717912137,0.6445522667487943,-2.3809783137084786,0.6621724717912136,0.9554477332512058,-2.4190216862915213,0.6621724717912136,0.6445522667487943,-2.3809783137084786,-0.0621724717912137,0.9554477332512058,-2.4190216862915213,-0.5378275282087863,0.6445522667487943,-2.3809783137084786,-0.0085423192071185,-0.0013993295577798,-3.1255120493973854,-0.0034178874716261,-0.0798427990567894,0.1291116493015042
0.09,-0.5302522234901926,0.951418262235996,-2.417559853881943,-0.0697477765098073,0.648581737764004,-2.3824401461180567,0.6697477765098073,0.951418262235996,-2.417559853881943,0.6697477765098073,0.648581737764004,-2.3824401461180567,-0.0697477765098073,0.951418262235996,-2.417559853881943,-0.5302522234901926,0.648581737764004,-2.3824401461180567,-0.0102208338058679,0.0004399097370409,-3.120864127002553,-0.0045622516658401,-0.0901600099717814,0.1310326235578903
0.1,-0.5227457514062631,0.947239359676908,-2.4160806920166102,-0.0772542485937368,0.6527606403230921,-2.3839193079833896,0.6772542485937368,0.947239359676908,-2.4160806920166102,0.6772542485937368,0.6527606403230921,-2.3839193079833896,-0.0772542485937368,0.947239359676908,-2.4160806920166102,-0.5227457514062631,0.6527606403230921,-2.3839193079833896,-0.0150064371628355,-0.0010850742755837,-3.12027794008875,-0.0050727928873417,-0.1024632870596258,0.1333154724517811
0.11,-0.5153155199386772,0.942915149646242,-2.4145856604497027,-0.0846844800613228,0.6570848503537581,-2.385414339550297,0.6846844800613228,0.942915149646242,-2.4145856604497027,0.6846844800613228,0.6570848503537581,-2.385414339550297,-0.0846844800613228,0.942915149646242,-2.4145856604497027,-0.5153155199386772,0.6570848503537581,-2.385414339550297,-0.0216722582627094,-0.0017823755602747,-3.1199863648520934,-0.0056084196528907,-0.1166016611215129,0.1362182538170803
0.12,-0.5079688618288305,0.9384498996172302,-2.413076234596879,-0.0920311381711694,0.6615501003827698,-2.386923765403121,0.6920311381711695,0.9384498996172302,-2.413076234596879,0.6920311381711695,0.6615501003827698,-2.386923765403121,-0.0920311381711694,0.9384498996172302,-2.413076234596879,-0.5079688618288305,0.6615501003827698,-2.386923765403121,-0.0240613348945475,-0.0019401862022977,-3.1195716196776915,-0.0062473764143356,-0.1317778029399653,0.1400460790368669
0.13,-0.5007130273413049,0.9338480162525552,-2.4115539040792213,-0.0992869726586951,0.6661519837474448,-2.3884460959207785,0.6992869726586951,0.9338480162525552,-2.4115539040792213,0.6992869726586951,0.6661519837474448,-2.3884460959207785,-0.0992869726586951,0.9338480162525552,-2.4115539040792213,-0.5007130273413049,0.6661519837474448,-2.3884460959207785,-0.0250958345070674,-0.0035365348429913,-3.11875699707056,-0.0071546462408848,-0.1478697885127608,0.1435025282462969
0.14,-0.4935551771087318,0.929114041055506,-2.4100201712531573,-0.1064448228912681,0.6708859589444942,-2.3899798287468426,0.7064448228912682,0.929114041055506,-2.4100201712531573,0.7064448228912682,0.6708859589444942,-2.3899798287468426,-0.1064448228912681,0.929114041055506,-2.4100201712531573,-0.4935551771087318,0.6708859589444942,-2.3899798287468426,-0.028883906546749,-0.0043578346722978,-3.116282534808029,-0.007787449261234,-0.1662187102795359,0.1467505832084763
0.15,-0.4865023750651133,0.9242526458880618,-2.4084765497278164,-0.1134976249348866,0.6757473541119383,-2.3915234502721834,0.7134976249348867,0.9242526458880618,-2.4084765497278164,0.7134976249348867,0.6757473541119383,-2.3915234502721834,-0.1134976249348866,0.9242526458880618,-2.4084765497278164,-0.4865023750651133,0.6757473541119383,-2.3915234502721834,-0.0206545770548465,-0.0056232623942569,-3.1122476047822905,-0.0084563941857322,-0.1857769305736224,0.1501087760999097
0.16,-0.4795615814745712,0.91926862836033,-2.4069245628712803,-0.1204384185254288,0.6807313716396701,-2.3930754371287195,0.7204384185254288,0.91926862836033,-2.4069245628712803,0.7204384185254288,0.6807313716396701,-2.3930754371287195,-0.1204384185254288,0.91926862836033,-2.4069245628712803,-0.4795615814745712,0.6807313716396701,-2.3930754371287195,-0.019434905222397,-0.0067639217034729,-3.1072167307066363,-0.0088068356766546,-0.2077088161992808,0.1520438563145552
0.17,-0.4727396460624071,0.9141669070958824,-2.4053657423072026,-0.1272603539375928,0.6858330929041178,-2.3946342576927973,0.7272603539375928,0.9141669070958824,-2.4053657423072026,0.7272603539375928,0.6858330929041178,-2.3946342576927973,-0.1272603539375928,0.9141669070958824,-2.4053657423072026,-0.4727396460624071,0.6858330929041178,-2.3946342576927973,-0.0086297220516684,-0.0043992569966319,-3.1020439681432315,-0.0093920949600474,-0.2307418647094711,0.1540099652128494
0.18,-0.4660433012552508,0.908952516877669,-2.4038016264032818,-0.1339566987447491,0.6910474831223311,-2.396198373596718,0.7339566987447491,0.908952516877669,-2.4038016264032818,0.7339566987447491,0.6910474831223311,-2.396198373596718,-0.1339566987447491,0.908952516877669,-2.4038016264032818,-0.4660433012552508,0.6910474831223311,-2.396198373596718,-0.0060058561995187,-0.0041950522498226,-3.096546466287193,-0.009380636872526,-0.2536552387511668,0.155110597781242
0.19,-0.4594791555369673,0.903630603679294,-2.402233758753077,-0.1405208444630326,0.696369396320706,-2.3977662412469227,0.7405208444630327,0.903630603679294,-2.402233758753077,0.7405208444630327,0.696369396320706,-2.3977662412469227,-0.1405208444630326,0.903630603679294,-2.402233758753077,-0.4594791555369673,0.696369396320706,-2.3977662412469227,-0.0009158654156532,-0.0014486337781611,-3.09175193064679,-0.00952005672433,-0.2769841640752029,0.1564254968473359
0.2,-0.4530536869268817,0.898206419586562,-2.400663686652668,-0.1469463130731182,0.7017935804134381,-2.399336313347332,0.7469463130731182,0.898206419586562,-2.400663686652668,0.7469463130731182,0.7017935804134381,-2.399336313347332,-0.1469463130731182,0.898206419586562,-2.400663686652668,-0.4530536869268817,0.7017935804134381,-2.399336313347332,0.0039899045083924,0.0022011109157995,-3.0863856037017614,-0.0092502901343907,-0.3000323605233655,0.1577314807440579
0.21,-0.4467732365867559,0.8926853176143029,-2.39909295957366,-0.1532267634132441,0.7073146823856972,-2.40090704042634,0.7532267634132441,0.8926853176143029,-2.39909295957366,0.7532267634132441,0.7073146823856972,-2.40090704042634,-0.1532267634132441,0.8926853176143029,-2.39909295957366,-0.4467732365867559,0.7073146823856972,-2.40090704042634,0.0064281656630625,0.0043193337180603,-3.081191576580344,-0.0088269225882342,-0.3231448997456179,0.1594669740220272
0.22,-0.4406440025628275,0.8870727464235924,-2.397523127634045,-0.1593559974371724,0.7129272535764077,-2.402476872365954,0.7593559974371724,0.8870727464235924,-2.397523127634045,0.7593559974371724,0.7129272535764077,-2.402476872365954,-0.1593559974371724,0.8870727464235924,-2.397523127634045,-0.4406440025628275,0.7129272535764077,-2.402476872365954,0.0096884192641934,0.0054935571468137,-3.0756908833255507,-0.0083454337388553,-0.3461364470933046,0.1622316652554778
0.23,-0.434672033669087,0.8813742449445818,-2.395955740068419,-0.1653279663309129,0.7186257550554183,-2.404044259931581,0.7653279663309129,0.8813742449445818,-2.395955740068419,0.7653279663309129,0.7186257550554183,-2.404044259931581,-0.1653279663309129,0.8813742449445818,-2.395955740068419,-0.434672033669087,0.7186257550554183,-2.404044259931581,0.0142624840705372,0.0070160472040942,-3.070435515957277,-0.0076605880591581,-0.3695430329091738,0.164768577683086
0.24,-0.4288632235178278,0.8755954369102427,-2.3943923436990757,-0.1711367764821721,0.7244045630897574,-2.4056076563009245,0.7711367764821722,0.8755954369102427,-2.3943923436990757,0.7711367764821722,0.7244045630897574,-2.4056076563009245,-0.1711367764821721,0.8755954369102427,-2.3943923436990757,-0.4288632235178278,0.7244045630897574,-2.4056076563009245,0.0180630540310811,0.0075568612187288,-3.065792943321148,-0.0064359090386001,-0.3931204234083639,0.1666057054510219
0.25,-0.4232233047033631,0.8697420253064209,-2.392834481409481,-0.1767766952966369,0.7302579746935792,-2.407165518590519,0.7767766952966368,0.8697420253064209,-2.392834481409481,0.7767766952966368,0.7302579746935792,-2.407165518590519,-0.1767766952966369,0.8697420253064209,-2.392834481409481,-0.4232233047033631,0.7302579746935792,-2.407165518590519,0.0226467894531046,0.0105207073005613,-3.061951324978702,-0.0044785793476955,-0.4169050315587863,0.1685103975601596
0.26,-0.4177578431446471,0.8638197867436783,-2.391283690621631,-0.1822421568553529,0.7361802132563218,-2.408716309378369,0.7822421568553528,0.8638197867436783,-2.391283690621631,0.7822421568553528,0.7361802132563218,-2.408716309378369,-0.1822421568553529,0.8638197867436783,-2.391283690621631,-0.4177578431446471,0.7361802132563218,-2.408716309378369,0.0277297471180149,0.0124732538364041,-3.057756001423647,-0.0019399022494654,-0.4405523386445032,0.1706739590960696
0.27,-0.4124722325923851,0.8578345657564759,-2.389741501778805,-0.1875277674076149,0.7421654342435242,-2.4102584982211943,0.7875277674076149,0.8578345657564759,-2.389741501778805,0.7875277674076149,0.7421654342435242,-2.4102584982211943,-0.1875277674076149,0.8578345657564759,-2.389741501778805,-0.4124722325923851,0.7421654342435242,-2.4102584982211943,0.0316087155737068,0.0134930883385041,-3.053949095017486,0.0011066509981845,-0.4644551958616431,0.1728637819668314
0.28,-0.4073716893060526,0.8517922690353237,-2.3882094368352003,-0.1926283106939473,0.7482077309646764,-2.4117905631648,0.7926283106939473,0.8517922690353237,-2.3882094368352003,0.7926283106939473,0.7482077309646764,-2.4117905631648,-0.1926283106939473,0.8517922690353237,-2.3882094368352003,-0.4073716893060526,0.7482077309646764,-2.4117905631648,0.0362144880211696,0.0151229159017907,-3.0505653768614565,0.0047031775191725,-0.4884751849245184,0.1748168119351936
0.29,-0.4024612469060774,0.84569885959759,-2.386689007753947,-0.1975387530939225,0.7543011404024101,-2.413310992246053,0.7975387530939225,0.84569885959759,-2.386689007753947,0.7975387530939225,0.7543011404024101,-2.413310992246053,-0.1975387530939225,0.84569885959759,-2.386689007753947,-0.4024612469060774,0.7543011404024101,-2.413310992246053,0.0417889882734,0.0150667694164774,-3.047501350153801,0.0087923495578774,-0.5124482272348141,0.1760531333114297
0.3,-0.3977457514062631,0.8395603509027237,-2.385181715014985,-0.2022542485937368,0.7604396490972763,-2.4148182849850146,0.8022542485937368,0.8395603509027237,-2.385181715014985,0.8022542485937368,0.7604396490972763,-2.4148182849850146,-0.2022542485937368,0.8395603509027237,-2.385181715014985,-0.3977457514062631,0.7604396490972763,-2.4148182849850146,0.0462900081714654,0.0162466114556308,-3.044754823118706,0.0134538032778202,-0.5364833381159669,0.177773279635573
0.31,-0.3932298564313595,0.8333828009176955,-2.38368904613427,-0.2067701435686404,0.7666171990823046,-2.4163109538657297,0.8067701435686404,0.8333828009176955,-2.38368904613427,0.8067701435686404,0.7666171990823046,-2.4163109538657297,-0.2067701435686404,0.8333828009176955,-2.38368904613427,-0.3932298564313595,0.7666171990823046,-2.4163109538657297,0.0541164551688934,0.0163453036152352,-3.041829334398793,0.0182019316097414,-0.560274792069236,0.1788223312666819
0.32,-0.3889180186244962,0.8271723061385158,-2.382212474195775,-0.2110819813755037,0.7728276938614843,-2.4177875258042247,0.8110819813755037,0.8271723061385158,-2.382212474195775,0.8110819813755037,0.7728276938614843,-2.4177875258042247,-0.2110819813755037,0.8271723061385158,-2.382212474195775,-0.3889180186244962,0.7728276938614843,-2.4177875258042247,0.0595585376801632,0.0175462310327243,-3.039466497805744,0.0230346351421104,-0.5838196717184005,0.1795961999001027
0.33,-0.384814493249014,0.8209349955737297,-2.380753456397735,-0.2151855067509859,0.7790650044262704,-2.4192465436022648,0.8151855067509859,0.8209349955737297,-2.380753456397735,0.8151855067509859,0.7790650044262704,-2.4192465436022648,-0.2151855067509859,0.8209349955737297,-2.380753456397735,-0.384814493249014,0.7790650044262704,-2.4192465436022648,0.0673462181660624,0.0179760296436854,-3.0371076334495277,0.0277791489696981,-0.6072198109006158,0.1797835173192077
0.34,-0.380923329989034,0.814677024695825,-2.379313432614567,-0.2190766700109659,0.785322975304175,-2.4206865673854328,0.819076670010966,0.814677024695825,-2.379313432614567,0.819076670010966,0.785322975304175,-2.4206865673854328,-0.2190766700109659,0.814677024695825,-2.379313432614567,-0.380923329989034,0.785322975304175,-2.4206865673854328,0.0745358308476262,0.0181569626202718,-3.034961113162041,0.0323781343379198,-0.6303230794125873,0.1798131543395676
0.35,-0.377248368952908,0.8084045693665243,-2.3778938239758887,-0.2227516310470919,0.7915954306334758,-2.422106176024111,0.8227516310470919,0.8084045693665243,-2.3778938239758887,0.8227516310470919,0.7915954306334758,-2.422106176024111,-0.2227516310470919,0.8084045693665243,-2.3778938239758887,-0.377248368952908,0.7915954306334758,-2.422106176024111,0.0783426077356317,0.0181157213400548,-3.0331112387506742,0.0364314170764264,-0.6519931374245285,0.1807095775055167
0.36,-0.3737932368834951,0.8021238197419547,-2.3764960314640358,-0.2262067631165049,0.7978761802580454,-2.4235039685359645,0.8262067631165049,0.8021238197419547,-2.3764960314640358,0.8262067631165049,0.7978761802580454,-2.4235039685359645,-0.2262067631165049,0.8021238197419547,-2.3764960314640358,-0.3737932368834951,0.7978761802580454,-2.4235039685359645,0.0839701348801256,0.0172612280021294,-3.031664216691872,0.0406927903659322,-0.6731994008484745,0.1828077544966899
0.37,-0.3705613435790047,0.7958409741637116,-2.3751214345314584,-0.2294386564209952,0.8041590258362885,-2.4248785654685414,0.8294386564209952,0.7958409741637116,-2.3751214345314584,0.8294386564209952,0.8041590258362885,-2.4248785654685414,-0.2294386564209952,0.7958409741637116,-2.3751214345314584,-0.3705613435790047,0.8041590258362885,-2.4248785654685414,0.0864806284100107,0.016085050843346,-3.029137533048309,0.0430660306857146,-0.6911500214238846,0.1862552875415812
0.38,-0.3675558785279371,0.7895622330418437,-2.3737713897393737,-0.2324441214720628,0.8104377669581564,-2.426228610260626,0.8324441214720628,0.7895622330418437,-2.3737713897393737,0.8324441214720628,0.8104377669581564,-2.426228610260626,-0.2324441214720628,0.7895622330418437,-2.3737713897393737,-0.3675558785279371,0.8104377669581564,-2.426228610260626,0.0915467082781341,0.0157067095646276,-3.0277569334772645,0.0459822333660517,-0.7084547597503728,0.1909827623136339
0.39,-0.3647798077614436,0.7832937927357966,-2.3724472294189973,-0.2352201922385563,0.8167062072642035,-2.4275527705810025,0.8352201922385564,0.7832937927357966,-2.3724472294189973,0.8352201922385564,0.8167062072642035,-2.4275527705810025,-0.2352201922385563,0.7832937927357966,-2.3724472294189973,-0.3647798077614436,0.8167062072642035,-2.4275527705810025,0.0959865586313132,0.0158698584469057,-3.0267248463674448,0.0495022856661051,-0.725489265475534,0.1959536352438092
0.4,-0.3622358709262115,0.7770418394393545,-2.371150260356698,-0.2377641290737883,0.8229581605606456,-2.4288497396433018,0.8377641290737884,0.7770418394393545,-2.371150260356698,0.8377641290737884,0.8229581605606456,-2.4288497396433018,-0.2377641290737883,0.7770418394393545,-2.371150260356698,-0.3622358709262115,0.8229581605606456,-2.4288497396433018,0.1006890049739541,0.0164355008257001,-3.026517390828184,0.0529922982403486,-0.7424376019887684,0.2017953579106852
0.41,-0.3599265785807642,0.7708125430756133,-2.369881762504356,-0.2400734214192357,0.8291874569243868,-2.4301182374956443,0.8400734214192358,0.7708125430756133,-2.369881762504356,0.8400734214192358,0.8291874569243868,-2.4301182374956443,-0.2400734214192357,0.7708125430756133,-2.369881762504356,-0.3599265785807642,0.8291874569243868,-2.4301182374956443,0.1052348075843424,0.0165827409941943,-3.026344824921244,0.0568537274875384,-0.7586651411827923,0.2066081261153584
0.42,-0.3578542097178422,0.7646120512080122,-2.3686429877162025,-0.2421457902821577,0.8353879487919879,-2.4313570122837973,0.8421457902821577,0.7646120512080122,-2.3686429877162025,0.8421457902821577,0.8353879487919879,-2.4313570122837973,-0.2421457902821577,0.7646120512080122,-2.3686429877162025,-0.3578542097178422,0.8353879487919879,-2.4313570122837973,0.1087474840257632,0.0165304316056674,-3.025814873657885,0.0611582230381167,-0.7746360354646522,0.2122376350330145
0.43,-0.3560208095153131,0.7584464829734299,-2.367435158513396,-0.2439791904846868,0.8415535170265702,-2.432564841486604,0.8439791904846868,0.7584464829734299,-2.367435158513396,0.8439791904846868,0.8415535170265702,-2.432564841486604,-0.2439791904846868,0.7584464829734299,-2.367435158513396,-0.3560208095153131,0.8415535170265702,-2.432564841486604,0.1134849311358959,0.0167471215846213,-3.0256902172110736,0.0652648300923632,-0.7904738660787601,0.218054444663135
0.44,-0.3544281873178278,0.7523219230433359,-2.3662594668775347,-0.2455718126821721,0.8476780769566642,-2.433740533122465,0.8455718126821721,0.7523219230433359,-2.3662594668775347,0.8455718126821721,0.8476780769566642,-2.433740533122465,-0.2455718126821721,0.7523219230433359,-2.3662594668775347,-0.3544281873178278,0.8476780769566642,-2.433740533122465,0.1171217110346514,0.0171083791017162,-3.025452430097224,0.0693304877969803,-0.8055547909728648,0.2233485920181674
0.45,-0.3530779148512155,0.7462444156189543,-2.365117073074322,-0.2469220851487844,0.8537555843810458,-2.434882926925678,0.8469220851487844,0.7462444156189543,-2.365117073074322,0.8469220851487844,0.8537555843810458,-2.434882926925678,-0.2469220851487844,0.7462444156189543,-2.365117073074322,-0.3530779148512155,0.8537555843810458,-2.434882926925678,0.120424736509388,0.0177939796631343,-3.025190813114243,0.0730813538782879,-0.8201909494988558,0.2296709591956402
0.46,-0.3519713246713805,0.7402199584663662,-2.364009104508518,-0.2480286753286194,0.8597800415336339,-2.4359908954914817,0.8480286753286195,0.7402199584663662,-2.364009104508518,0.8480286753286195,0.8597800415336339,-2.4359908954914817,-0.2480286753286194,0.7402199584663662,-2.364009104508518,-0.3519713246713805,0.8597800415336339,-2.4359908954914817,0.124477518143195,0.016512635829871,-3.025245047519617,0.0764895144665594,-0.8341985439928549,0.2352105073245366
0.47,-0.35110950884923,0.73425449699744,-2.362936654611331,-0.24889049115077,0.86574550300256,-2.437063345388669,0.84889049115077,0.73425449699744,-2.362936654611331,0.84889049115077,0.86574550300256,-2.437063345388669,-0.24889049115077,0.73425449699744,-2.362936654611331,-0.35110950884923,0.86574550300256,-2.437063345388669,0.1272496036512332,0.0173210257685144,-3.02534123472663,0.0793004372348069,-0.8474552333464397,0.2414840340562604
0.48,-0.3504933178929321,0.7283539184024267,-2.3619007817613302,-0.2495066821070679,0.8716460815975734,-2.4380992182386696,0.8495066821070678,0.7283539184024267,-2.3619007817613302,0.8495066821070678,0.8716460815975734,-2.4380992182386696,-0.2495066821070679,0.7283539184024267,-2.3619007817613302,-0.3504933178929321,0.8716460815975734,-2.4380992182386696,0.1308116646338344,0.017647624913804,-3.025744192472914,0.0814253851105585,-0.8602708032343749,0.2477936640535241
0.49,-0.3501233599085671,0.7225240458400137,-2.3609025082399566,-0.2498766400914329,0.8774759541599864,-2.439097491760043,0.8498766400914328,0.7225240458400137,-2.3609025082399566,0.8498766400914328,0.8774759541599864,-2.439097491760043,-0.2498766400914329,0.7225240458400137,-2.3609025082399566,-0.3501233599085671,0.8774759541599864,-2.439097491760043,0.1335836424760555,0.0173276636690791,-3.026077898046082,0.0829186391965105,-0.8723828781242465,0.2543049418124165
0.5,-0.35,0.7167706326905716,-2.359942819222653,-0.25,0.8832293673094285,-2.440057180777347,0.85,0.7167706326905716,-2.359942819222653,0.85,0.8832293673094285,-2.440057180777347,-0.25,0.7167706326905716,-2.359942819222653,-0.35,0.8832293673094285,-2.440057180777347,0.1356226128674519,0.0176216038189458,-3.0268568948889314,0.0833910927489547,-0.8835227868046095,0.2614389847511444
0.51,-0.3501233599085671,0.7110993568782604,-2.359022661806615,-0.2498766400914329,0.8889006431217397,-2.440977338193385,0.8498766400914328,0.7110993568782604,-2.359022661806615,0.8498766400914328,0.8889006431217397,-2.440977338193385,-0.2498766400914329,0.7110993568782604,-2.359022661806615,-0.3501233599085671,0.8889006431217397,-2.440977338193385,0.1381395834630691,0.0172299137137358,-3.027406949147084,0.0832099413215259,-0.8938557171026503,0.2683150890935034
0.52,-0.3504933178929321,0.7055158152676058,-2.3581429440761195,-0.2495066821070679,0.8944841847323943,-2.4418570559238804,0.8495066821070678,0.7055158152676058,-2.3581429440761195,0.8495066821070678,0.8944841847323943,-2.4418570559238804,-0.2495066821070679,0.7055158152676058,-2.3581429440761195,-0.3504933178929321,0.8944841847323943,-2.4418570559238804,0.1396853276808043,0.01662880159283,-3.027968199072589,0.0825252603541671,-0.9030230538533816,0.2758688778072741
0.53,-0.35110950884923,0.700025518140068,-2.357304534206357,-0.24889049115077,0.8999744818599321,-2.442695465793643,0.84889049115077,0.700025518140068,-2.357304534206357,0.84889049115077,0.8999744818599321,-2.442695465793643,-0.24889049115077,0.700025518140068,-2.357304534206357,-0.35110950884923,0.8999744818599321,-2.442695465793643,0.1412184374380111,0.0160100228595351,-3.028575759435471,0.0815394197365828,-0.9106181426246082,0.2832276701111005
0.54,-0.3519713246713805,0.6946338837560606,-2.356508259606647,-0.2480286753286194,0.9053661162439396,-2.4434917403933527,0.8480286753286195,0.6946338837560606,-2.356508259606647,0.8480286753286195,0.9053661162439396,-2.4434917403933527,-0.2480286753286194,0.6946338837560606,-2.356508259606647,-0.3519713246713805,0.9053661162439396,-2.4434917403933527,0.1421246618145389,0.0152615470438841,-3.029032784716758,0.0803164513280532,-0.9170558227679144,0.2909997560095862
0.55,-0.3530779148512155,0.6893462330077806,-2.355754906103884,-0.2469220851487844,0.9106537669922194,-2.444245093896116,0.8469220851487844,0.6893462330077806,-2.355754906103884,0.8469220851487844,0.9106537669922194,-2.444245093896116,-0.2469220851487844,0.6893462330077806,-2.355754906103884,-0.3530779148512155,0.9106537669922194,-2.444245093896116,0.1423364648729113,0.0146718691939097,-3.029333008842527,0.0793401074189913,-0.922095209686136,0.2995927333899063
0.56,-0.3544281873178278,0.6841677841681307,-2.3550452171670213,-0.2455718126821721,0.9158322158318694,-2.4449547828329785,0.8455718126821721,0.6841677841681307,-2.3550452171670213,0.8455718126821721,0.9158322158318694,-2.4449547828329785,-0.2455718126821721,0.6841677841681307,-2.3550452171670213,-0.3544281873178278,0.9158322158318694,-2.4449547828329785,0.1428011065716382,0.0141098963478172,-3.0295201051078604,0.0785711968259479,-0.9259509047270832,0.308089590205694
0.5700000000000001,-0.3560208095153131,0.679103647740914,-2.3543798931733577,-0.2439791904846868,0.920896352259086,-2.445620106826642,0.8439791904846868,0.679103647740914,-2.3543798931733577,0.8439791904846868,0.920896352259086,-2.445620106826642,-0.2439791904846868,0.679103647740914,-2.3543798931733577,-0.3560208095153131,0.920896352259086,-2.445620106826642,0.1423468758143754,0.0139196735123038,-3.0294823297026814,0.0780799689193501,-0.9283219263561332,0.3172558187862186
0.58,-0.3578542097178422,0.6741588214173836,-2.3537595907173503,-0.2421457902821578,0.9258411785826164,-2.446240409282649,0.8421457902821577,0.6741588214173836,-2.3537595907173503,0.8421457902821577,0.9258411785826164,-2.446240409282649,-0.2421457902821578,0.6741588214173836,-2.3537595907173503,-0.3578542097178422,0.9258411785826164,-2.446240409282649,0.1415387084795344,0.0140903083477962,-3.029181503752028,0.0782094386300202,-0.9289614020171214,0.3269518437382807
0.59,-0.3599265785807642,0.6693381851441245,-2.3531849219626326,-0.2400734214192357,0.9306618148558756,-2.446815078037367,0.8400734214192358,0.6693381851441245,-2.3531849219626326,0.8400734214192358,0.9306618148558756,-2.446815078037367,-0.2400734214192357,0.6693381851441245,-2.3531849219626326,-0.3599265785807642,0.9306618148558756,-2.446815078037367,0.1405799321719915,0.014465881516158,-3.0286950073310908,0.0790162003396208,-0.9279471889269486,0.3368506172022695
0.6,-0.3622358709262115,0.6646464963071361,-2.3526564540378847,-0.2377641290737884,0.935353503692864,-2.447343545962115,0.8377641290737884,0.6646464963071361,-2.3526564540378847,0.8377641290737884,0.935353503692864,-2.447343545962115,-0.2377641290737884,0.6646464963071361,-2.3526564540378847,-0.3622358709262115,0.935353503692864,-2.447343545962115,0.1387140074453517,0.0151361562939578,-3.0281415123341526,0.0804930194135676,-0.9250679169909428,0.3474940312660046
0.61,-0.3647798077614436,0.6600883850368661,-2.3521747084771456,-0.2352201922385563,0.939911614963134,-2.447825291522854,0.8352201922385564,0.6600883850368661,-2.3521747084771456,0.8352201922385564,0.939911614963134,-2.447825291522854,-0.2352201922385563,0.6600883850368661,-2.3521747084771456,-0.3647798077614436,0.939911614963134,-2.447825291522854,0.1369829704713821,0.0157863953888497,-3.0273451536305025,0.0823965296309235,-0.920641312652884,0.3581401698092982
0.62,-0.3675558785279371,0.6556683496388306,-2.3517401607051225,-0.2324441214720628,0.9443316503611696,-2.4482598392948773,0.8324441214720628,0.6556683496388306,-2.3517401607051225,0.8324441214720628,0.9443316503611696,-2.4482598392948773,-0.2324441214720628,0.6556683496388306,-2.3517401607051225,-0.3675558785279371,0.9443316503611696,-2.4482598392948773,0.1342411713735086,0.0165164304019565,-3.0265429553095786,0.0842874235057333,-0.9144074103502734,0.369457292350955
0.63,-0.3705613435790046,0.6513907521543303,-2.3513532395680024,-0.2294386564209953,0.9486092478456698,-2.448646760431997,0.8294386564209952,0.6513907521543303,-2.3513532395680024,0.8294386564209952,0.9486092478456698,-2.448646760431997,-0.2294386564209953,0.6513907521543303,-2.3513532395680024,-0.3705613435790046,0.9486092478456698,-2.448646760431997,0.1311665928761789,0.0170981196737928,-3.025841493442627,0.0859468516750338,-0.9063882363091442,0.3812521827694441
0.64,-0.3737932368834951,0.6472598140556417,-2.351014326910234,-0.2262067631165048,0.9527401859443584,-2.4489856730897657,0.8262067631165049,0.6472598140556417,-2.351014326910234,0.8262067631165049,0.9527401859443584,-2.4489856730897657,-0.2262067631165048,0.6472598140556417,-2.351014326910234,-0.3737932368834951,0.9527401859443584,-2.4489856730897657,0.1276688539167016,0.0175211965485786,-3.025227539915843,0.0872205668225327,-0.8965574650202592,0.3934139498105604
0.65,-0.377248368952908,0.6432796120799342,-2.3507237571976933,-0.2227516310470919,0.956720387920066,-2.4492762428023065,0.8227516310470919,0.6432796120799342,-2.3507237571976933,0.8227516310470919,0.956720387920066,-2.4492762428023065,-0.2227516310470919,0.6432796120799342,-2.3507237571976933,-0.377248368952908,0.956720387920066,-2.4492762428023065,0.1239425803136037,0.0177411937565772,-3.0247051887335243,0.088087960038368,-0.8850228536923568,0.4056137844234092
0.66,-0.3809233299890341,0.6394540742060218,-2.350481817187606,-0.2190766700109658,0.9605459257939782,-2.449518182812394,0.8190766700109658,0.6394540742060218,-2.350481817187606,0.8190766700109658,0.9605459257939782,-2.449518182812394,-0.2190766700109658,0.6394540742060218,-2.350481817187606,-0.3809233299890341,0.9605459257939782,-2.449518182812394,0.1193748718912386,0.0178637025372777,-3.024400054399684,0.0887645577769815,-0.8715381938706006,0.4183526075157476
0.67,-0.384814493249014,0.6357869757779238,-2.350288745645551,-0.2151855067509859,0.9642130242220764,-2.449711254354449,0.8151855067509859,0.6357869757779238,-2.350288745645551,0.8151855067509859,0.9642130242220764,-2.449711254354449,-0.2151855067509859,0.6357869757779238,-2.350288745645551,-0.384814493249014,0.9642130242220764,-2.449711254354449,0.114761383425381,0.017599690352998,-3.024326512952799,0.0894878714527959,-0.8565332473921806,0.4310066979017716
0.68,-0.3889180186244962,0.6322819357790543,-2.350144733109832,-0.2110819813755037,0.9677180642209458,-2.449855266890168,0.8110819813755037,0.6322819357790543,-2.350144733109832,0.8110819813755037,0.9677180642209458,-2.449855266890168,-0.2110819813755037,0.6322819357790543,-2.350144733109832,-0.3889180186244962,0.9677180642209458,-2.449855266890168,0.109234853319721,0.0171559133970637,-3.0242659356441663,0.0901353967650331,-0.8396694789285317,0.4442169210383891
0.6900000000000001,-0.3932298564313595,0.6289424132607235,-2.3500499217034343,-0.2067701435686404,0.9710575867392766,-2.449950078296565,0.8067701435686404,0.6289424132607235,-2.3500499217034343,0.8067701435686404,0.9710575867392766,-2.449950078296565,-0.2067701435686404,0.6289424132607235,-2.3500499217034343,-0.3932298564313595,0.9710575867392766,-2.449950078296565,0.1039914354744921,0.0168813112606669,-3.024746995702708,0.0911850549747294,-0.8213203214054828,0.4570757591342763
0.7000000000000001,-0.3977457514062631,0.6257717039284717,-2.350004404993769,-0.2022542485937368,0.9742282960715284,-2.449995595006231,0.8022542485937368,0.6257717039284717,-2.350004404993769,0.8022542485937368,0.9742282960715284,-2.449995595006231,-0.2022542485937368,0.6257717039284717,-2.350004404993769,-0.3977457514062631,0.9742282960715284,-2.449995595006231,0.0979240126284776,0.0166531062785482,-3.0252888295833595,0.0923909895416743,-0.8011493932231051,0.4702259292597656
0.71,-0.4024612469060773,0.6227729368896054,-2.3500082279003336,-0.1975387530939226,0.9772270631103946,-2.4499917720996662,0.7975387530939226,0.6227729368896054,-2.3500082279003336,0.7975387530939226,0.9772270631103946,-2.4499917720996662,-0.1975387530939226,0.6227729368896054,-2.3500082279003336,-0.4024612469060773,0.9772270631103946,-2.4499917720996662,0.0905374665451725,0.0170323411934433,-3.026043412803665,0.0937090273913654,-0.7792778359056933,0.4840136526971986
0.72,-0.4073716893060526,0.6199490715651464,-2.350061386650381,-0.1926283106939473,0.9800509284348536,-2.449938613349619,0.7926283106939473,0.6199490715651464,-2.350061386650381,0.7926283106939473,0.9800509284348536,-2.449938613349619,-0.1926283106939473,0.6199490715651464,-2.350061386650381,-0.4073716893060526,0.9800509284348536,-2.449938613349619,0.0810405717536144,0.0164510220009982,-3.0265751030006114,0.0949373620855652,-0.7559673571491183,0.4985523056948663
0.73,-0.4124722325923851,0.6173028947692406,-2.350163828782642,-0.1875277674076149,0.9826971052307596,-2.449836171217358,0.7875277674076149,0.6173028947692406,-2.350163828782642,0.7875277674076149,0.9826971052307596,-2.449836171217358,-0.1875277674076149,0.6173028947692406,-2.350163828782642,-0.4124722325923851,0.9826971052307596,-2.449836171217358,0.0738917926476758,0.0163126968935666,-3.027377719783973,0.0959603253520828,-0.7317799174288814,0.5131229288717851
0.74,-0.4177578431446471,0.6148370179589087,-2.350315453199101,-0.1822421568553528,0.9851629820410914,-2.4496845468008988,0.7822421568553528,0.6148370179589087,-2.350315453199101,0.7822421568553528,0.9851629820410914,-2.4496845468008988,-0.1822421568553528,0.6148370179589087,-2.350315453199101,-0.4177578431446471,0.9851629820410914,-2.4496845468008988,0.066577758028885,0.0154914195544284,-3.028263244862618,0.0967984799752257,-0.7067225263392668,0.5276135561615498
0.75,-0.4232233047033631,0.6125538746568536,-2.3505161102647647,-0.1767766952966369,0.9874461253431464,-2.449483889735235,0.7767766952966368,0.6125538746568536,-2.3505161102647647,0.7767766952966368,0.9874461253431464,-2.449483889735235,-0.1767766952966369,0.6125538746568536,-2.3505161102647647,-0.4232233047033631,0.9874461253431464,-2.449483889735235,0.0589219423998667,0.014153000760764,-3.029190908403101,0.0974521208604649,-0.6807956690610727,0.541916147537079
0.76,-0.4288632235178278,0.6104557180498673,-2.3507656019553345,-0.1711367764821722,0.9895442819501328,-2.4492343980446654,0.7711367764821722,0.6104557180498673,-2.3507656019553345,0.7711367764821722,0.9895442819501328,-2.4492343980446654,-0.1711367764821722,0.6104557180498673,-2.3507656019553345,-0.4288632235178278,0.9895442819501328,-2.4492343980446654,0.0516146623366885,0.0127714733539341,-3.0302292743694403,0.0978931337193312,-0.6539391269597895,0.5552301643368045
0.77,-0.434672033669087,0.6085446187652072,-2.3510636820526334,-0.1653279663309129,0.9914553812347928,-2.4489363179473664,0.7653279663309129,0.6085446187652072,-2.3510636820526334,0.7653279663309129,0.9914553812347928,-2.4489363179473664,-0.1653279663309129,0.6085446187652072,-2.3510636820526334,-0.434672033669087,0.9914553812347928,-2.4489363179473664,0.0435060452247964,0.0108623809045608,-3.031293308871793,0.0981612538448688,-0.6261489281008225,0.5682993365762002
0.78,-0.4406440025628275,0.6068224628271376,-2.3514100563875933,-0.1593559974371724,0.9931775371728624,-2.4485899436124066,0.7593559974371724,0.6068224628271376,-2.3514100563875933,0.7593559974371724,0.9931775371728624,-2.4485899436124066,-0.1593559974371724,0.6068224628271376,-2.3514100563875933,-0.4406440025628275,0.9931775371728624,-2.4485899436124066,0.0350817581329428,0.0084873916134138,-3.032369092546725,0.0982565767238506,-0.5974778797533119,0.5811415761838692
0.79,-0.4467732365867559,0.6052909497956509,-2.3518043831305637,-0.1532267634132441,0.9947090502043492,-2.4481956168694365,0.7532267634132441,0.6052909497956509,-2.3518043831305637,0.7532267634132441,0.9947090502043492,-2.4481956168694365,-0.1532267634132441,0.6052909497956509,-2.3518043831305637,-0.4467732365867559,0.9947090502043492,-2.4481956168694365,0.0265641853667701,0.0052363658952671,-3.0333899618836533,0.0981712946942445,-0.5679225783361713,0.5934533908178671
0.8,-0.4530536869268816,0.6039515910892074,-2.352246273128656,-0.1469463130731183,0.9960484089107928,-2.447753726871344,0.7469463130731183,0.6039515910892074,-2.352246273128656,0.7469463130731183,0.9960484089107928,-2.447753726871344,-0.1469463130731183,0.6039515910892074,-2.352246273128656,-0.4530536869268816,0.9960484089107928,-2.447753726871344,0.0180838790184827,0.0026238830290886,-3.034600666702476,0.0978662150170476,-0.5374996983830126,0.6050401301481725
0.81,-0.4594791555369674,0.6028057084931475,-2.352735290289794,-0.1405208444630326,0.9971942915068526,-2.447264709710206,0.7405208444630326,0.6028057084931475,-2.352735290289794,0.7405208444630326,0.9971942915068526,-2.447264709710206,-0.1405208444630326,0.6028057084931475,-2.352735290289794,-0.4594791555369674,0.9971942915068526,-2.447264709710206,0.0089388268796634,-0.0015377056357257,-3.035759298004782,0.0974146707653876,-0.5060507722709099,0.6163144006331449
0.8200000000000001,-0.4660433012552508,0.6018544328552496,-2.3532709520130783,-0.1339566987447491,0.9981455671447504,-2.446729047986921,0.7339566987447491,0.6018544328552496,-2.3532709520130783,0.7339566987447491,0.9981455671447504,-2.446729047986921,-0.1339566987447491,0.6018544328552496,-2.3532709520130783,-0.4660433012552508,0.9981455671447504,-2.446729047986921,0.0002863239649644,-0.0041824342846423,-3.0371601410980698,0.0967602994150526,-0.473852607366496,0.6264920089472816
0.8300000000000001,-0.4727396460624072,0.6010987029697195,-2.353852729665059,-0.1272603539375927,0.9989012970302806,-2.446147270334941,0.7272603539375928,0.6010987029697195,-2.353852729665059,0.7272603539375928,0.9989012970302806,-2.446147270334941,-0.1272603539375927,0.6010987029697195,-2.353852729665059,-0.4727396460624072,0.9989012970302806,-2.446147270334941,-0.0087383679420206,-0.006774325534811,-3.038785889913321,0.0958934971565795,-0.4407676602681432,0.6360042311988565
0.84,-0.479561581474571,0.6005392646507135,-2.354480049101433,-0.1204384185254289,0.9994607353492866,-2.445519950898567,0.7204384185254289,0.6005392646507135,-2.354480049101433,0.7204384185254289,0.9994607353492866,-2.445519950898567,-0.1204384185254289,0.6005392646507135,-2.354480049101433,-0.479561581474571,0.9994607353492866,-2.445519950898567,-0.0182176269737474,-0.010665168998442,-3.0403922304354656,0.0949040615566469,-0.4067597211549314,0.645027014581564
0.85,-0.4865023750651133,0.6001766699963108,-2.355152291233653,-0.1134976249348867,0.9998233300036892,-2.4448477087663463,0.7134976249348867,0.6001766699963108,-2.355152291233653,0.7134976249348867,0.9998233300036892,-2.4448477087663463,-0.1134976249348867,0.6001766699963108,-2.355152291233653,-0.4865023750651133,0.9998233300036892,-2.4448477087663463,-0.0275240817276987,-0.013372651272827,-3.042210390514642,0.0937192387577636,-0.3720014297367755,0.6530590618852607
0.86,-0.4935551771087317,0.6000112768436588,-2.355868792639897,-0.1064448228912682,0.9999887231563412,-2.444131207360103,0.7064448228912682,0.6000112768436588,-2.355868792639897,0.7064448228912682,0.9999887231563412,-2.444131207360103,-0.1064448228912682,0.6000112768436588,-2.355868792639897,-0.4935551771087317,0.9999887231563412,-2.444131207360103,-0.0373224688979746,-0.0169705770745734,-3.0439368403727247,0.0921968892389291,-0.336503601109284,0.6605694326825423
0.87,-0.5007130273413049,0.600043248415831,-2.35662884621978,-0.0992869726586951,0.9999567515841692,-2.44337115378022,0.6992869726586951,0.600043248415831,-2.35662884621978,0.6992869726586951,0.9999567515841692,-2.44337115378022,-0.0992869726586951,0.600043248415831,-2.35662884621978,-0.5007130273413049,0.9999567515841692,-2.44337115378022,-0.0469265486571973,-0.0210780478350794,-3.0451949050080938,0.0899788027774896,-0.3009096580572747,0.6671528019263041
0.88,-0.5079688618288305,0.6002725531607456,-2.357431701892181,-0.0920311381711695,0.9997274468392544,-2.442568298107819,0.6920311381711695,0.6002725531607456,-2.357431701892181,0.6920311381711695,0.9997274468392544,-2.442568298107819,-0.0920311381711695,0.6002725531607456,-2.357431701892181,-0.5079688618288305,0.9997274468392544,-2.442568298107819,-0.0561806038352059,-0.0252904855702571,-3.046381218434644,0.0874050071230266,-0.2654962233562147,0.6727533313811985
0.89,-0.5153155199386772,0.6006989647823036,-2.3582765673354813,-0.0846844800613228,0.9993010352176964,-2.4417234326645185,0.6846844800613228,0.6006989647823036,-2.3582765673354813,0.6846844800613228,0.9993010352176964,-2.4417234326645185,-0.0846844800613228,0.6006989647823036,-2.3582765673354813,-0.5153155199386772,0.9993010352176964,-2.4417234326645185,-0.0652339137515342,-0.0294942688667324,-3.047775340503303,0.0845763176869333,-0.2302962259364388,0.6773839191544389
0.9,-0.5227457514062631,0.6013220624637159,-2.3591626087694904,-0.0772542485937368,0.9986779375362842,-2.440837391230509,0.6772542485937368,0.6013220624637159,-2.3591626087694904,0.6772542485937368,0.9986779375362842,-2.440837391230509,-0.0772542485937368,0.6013220624637159,-2.3591626087694904,-0.5227457514062631,0.9986779375362842,-2.440837391230509,-0.0740797246174527,-0.033666876047594,-3.049429917627854,0.081516253421018,-0.1953108356650822,0.6810908708210571
0.91,-0.5302522234901927,0.6021412312827985,-2.360088951778286,-0.0697477765098072,0.9978587687172016,-2.4399110482217137,0.6697477765098072,0.6021412312827985,-2.360088951778286,0.6697477765098072,0.9978587687172016,-2.4399110482217137,-0.0697477765098072,0.6021412312827985,-2.360088951778286,-0.5302522234901927,0.9978587687172016,-2.4399110482217137,-0.0827458304251275,-0.0377942754048614,-3.0513226626920997,0.0782240810000591,-0.1605286517409776,0.6839126505807225
0.92,-0.5378275282087863,0.6031556628188262,-2.3610546821731573,-0.0621724717912137,0.996844337181174,-2.4389453178268425,0.6621724717912136,0.6031556628188262,-2.3610546821731573,0.6621724717912136,0.996844337181174,-2.4389453178268425,-0.0621724717912137,0.6031556628188262,-2.3610546821731573,-0.5378275282087863,0.996844337181174,-2.4389453178268425,-0.0849979892301366,-0.0378148783614064,-3.0549170201823084,0.074671347174265,-0.1273937233117318,0.6876798021028361
0.93,-0.5454641896508644,0.604364355950347,-2.3620588468947985,-0.0545358103491355,0.9956356440496532,-2.4379411531052013,0.6545358103491355,0.604364355950347,-2.3620588468947985,0.6545358103491355,0.9956356440496532,-2.4379411531052013,-0.0545358103491355,0.604364355950347,-2.3620588468947985,-0.5454641896508644,0.9956356440496532,-2.4379411531052013,-0.0871255689050935,-0.0373740676204815,-3.058180080408761,0.0706638374903996,-0.0945248149046422,0.6908532209954258
0.94,-0.5531546713535689,0.6057661178431673,-2.363100454953864,-0.0468453286464311,0.9942338821568328,-2.436899545046136,0.6468453286464311,0.6057661178431673,-2.363100454953864,0.6468453286464311,0.9942338821568328,-2.436899545046136,-0.0468453286464311,0.6057661178431673,-2.363100454953864,-0.5531546713535689,0.9942338821568328,-2.436899545046136,-0.0902363920956016,-0.0363814509004018,-3.0608442281611348,0.0661708491899636,-0.0616439446657257,0.6934732373889505
0.95,-0.5608913837399422,0.6073595651275354,-2.364178478408953,-0.0391086162600577,0.9926404348724648,-2.4358215215910466,0.6391086162600578,0.6073595651275354,-2.364178478408953,0.6391086162600578,0.9926404348724648,-2.4358215215910466,-0.0391086162600577,0.6073595651275354,-2.364178478408953,-0.5608913837399422,0.9926404348724648,-2.4358215215910466,-0.0933165890337427,-0.0353389468286922,-3.0628313447043087,0.0611656953453706,-0.0287911607635646,0.695355173919685
0.96,-0.5686666916089238,0.6091431252633612,-2.3652918533810685,-0.0313333083910761,0.9908568747366387,-2.4347081466189318,0.6313333083910762,0.6091431252633612,-2.3652918533810685,0.6313333083910762,0.9908568747366387,-2.4347081466189318,-0.0313333083910761,0.6091431252633612,-2.3652918533810685,-0.5686666916089238,0.9908568747366387,-2.4347081466189318,-0.096328190312175,-0.0341586367356596,-3.0641559792278814,0.0556583458546742,0.0040309173310797,0.696542153464825
0.97,-0.5764729216703713,0.6111150380921224,-2.3664394811035314,-0.0235270783296285,0.9888849619078776,-2.4335605188964684,0.6235270783296286,0.6111150380921224,-2.3664394811035314,0.6235270783296286,0.9888849619078776,-2.4335605188964684,-0.0235270783296285,0.6111150380921224,-2.3664394811035314,-0.5764729216703713,0.9888849619078776,-2.4335605188964684,-0.0991335946525898,-0.0327288817992337,-3.065106206903658,0.0497463224134655,0.0367727474684329,0.6970556254795945
0.98,-0.5843023701176716,0.6132733575739289,-2.3676202290063344,-0.0156976298823283,0.9867266424260712,-2.432379770993665,0.6156976298823283,0.6132733575739289,-2.3676202290063344,0.6156976298823283,0.9867266424260712,-2.432379770993665,-0.0156976298823283,0.6132733575739289,-2.3676202290063344,-0.5843023701176716,0.9867266424260712,-2.432379770993665,-0.1015685363421519,-0.0309595292856537,-3.066103706855185,0.0435689449650165,0.0693599262682859,0.6968901048172773
0.99,-0.592147310230468,0.615615953708029,-2.3688329318338512,-0.007852689769532,0.9843840462919712,-2.4311670681661486,0.607852689769532,0.615615953708029,-2.3688329318338512,0.607852689769532,0.9843840462919712,-2.4311670681661486,-0.007852689769532,0.615615953708029,-2.3688329318338512,-0.592147310230468,0.9843840462919712,-2.4311670681661486,-0.1035976288152422,-0.0288367744658947,-3.067272173936097,0.037168435688427,0.1017736531127807,0.696042465519578
1.0,-0.6,0.6181405146348637,-2.370076392794802,-3.061616997868383e-17,0.9818594853651365,-2.4299236072051977,0.6,0.6181405146348637,-2.370076392794802,0.6,0.9818594853651365,-2.4299236072051977,-3.061616997868383e-17,0.6181405146348637,-2.370076392794802,-0.6,0.9818594853651365,-2.4299236072051977,-0.1052396917483319,-0.0263740839533162,-3.06862005486376,0.0305482993546593,0.1340187875624685,0.6945121574339541
1.01,-0.607852689769532,0.620844548917592,-2.371349384743344,0.0078526897695319,0.979155451082408,-2.428650615256656,0.592147310230468,0.620844548917592,-2.371349384743344,0.592147310230468,0.979155451082408,-2.428650615256656,0.0078526897695319,0.620844548917592,-2.371349384743344,-0.607852689769532,0.979155451082408,-2.428650615256656,-0.1065258105983628,-0.0235896758576452,-3.070127492128804,0.0237026835085232,0.1661059953853226,0.6922991259621987
1.02,-0.6156976298823283,0.6237253880008389,-2.3726506513901127,0.0156976298823283,0.9762746119991612,-2.427349348609887,0.5843023701176716,0.6237253880008389,-2.3726506513901127,0.5843023701176716,0.9762746119991612,-2.427349348609887,0.0156976298823283,0.6237253880008389,-2.3726506513901127,-0.6156976298823283,0.9762746119991612,-2.427349348609887,-0.1074841003237299,-0.0204994648568149,-3.0717779175362288,0.0166270487216687,0.1980448510111978,0.6894025159244398
1.03,-0.6235270783296285,0.6267801888442371,-2.3739789085420333,0.0235270783296285,0.973219811155763,-2.4260210914579665,0.5764729216703715,0.6267801888442371,-2.3739789085420333,0.5764729216703715,0.973219811155763,-2.4260210914579665,0.0235270783296285,0.6267801888442371,-2.3739789085420333,-0.6235270783296285,0.973219811155763,-2.4260210914579665,-0.1081362146090322,-0.0171156508150319,-3.0735633573476107,0.0093200029596868,0.2298426572312275,0.6858210460833287
1.04,-0.631333308391076,0.630005936728165,-2.375332845369658,0.031333308391076,0.9699940632718352,-2.4246671546303418,0.5686666916089239,0.630005936728165,-2.375332845369658,0.5686666916089239,0.9699940632718352,-2.4246671546303418,0.031333308391076,0.630005936728165,-2.375332845369658,-0.631333308391076,0.9699940632718352,-2.4246671546303418,-0.1084990880834883,-0.0134472594071267,-3.075481734823209,0.0017823948412848,0.2615050356731773,0.6815532547645428
1.05,-0.6391086162600577,0.63339944822891,-2.3767111257008016,0.0391086162600576,0.96660055177109,-2.4232888742991983,0.5608913837399423,0.63339944822891,-2.3767111257008016,0.5608913837399423,0.96660055177109,-2.4232888742991983,0.0391086162600576,0.63339944822891,-2.3767111257008016,-0.6391086162600577,0.96660055177109,-2.4232888742991983,-0.1091226405056706,-0.0104466250570148,-3.0771632962042244,-0.0061239496442341,0.2923878907466068,0.6772351317696012
1.06,-0.6468453286464312,0.636957374360325,-2.378112389339178,0.0468453286464311,0.9630426256396752,-2.421887610660822,0.5531546713535688,0.636957374360325,-2.378112389339178,0.5531546713535688,0.9630426256396752,-2.421887610660822,0.0468453286464311,0.636957374360325,-2.378112389339178,-0.6468453286464312,0.9630426256396752,-2.421887610660822,-0.1096413411547561,-0.0076348612092203,-3.0790623290914003,-0.0141980988258967,0.3223551133797258,0.6728661330961463
1.07,-0.6545358103491357,0.6406762038788714,-2.379535253406754,0.0545358103491356,0.9593237961211288,-2.420464746593246,0.5454641896508643,0.6406762038788714,-2.379535253406754,0.5454641896508643,0.9593237961211288,-2.420464746593246,0.0545358103491356,0.6406762038788714,-2.379535253406754,-0.6545358103491357,0.9593237961211288,-2.420464746593246,-0.1108533134228629,-0.0061338193832931,-3.0807493102383647,-0.0219274342867401,0.3507960281478977,0.6705702135002861
1.08,-0.6621724717912137,0.6445522667487943,-2.3809783137084786,0.0621724717912137,0.9554477332512058,-2.4190216862915213,0.5378275282087862,0.6445522667487943,-2.3809783137084786,0.5378275282087862,0.9554477332512058,-2.4190216862915213,0.0621724717912137,0.6445522667487943,-2.3809783137084786,-0.6621724717912137,0.9554477332512058,-2.4190216862915213,-0.1105850434764229,-0.0052618011650742,-3.081276674906969,-0.0295907918372077,0.3777802780938663,0.6702331886573253
1.09,-0.6697477765098073,0.648581737764004,-2.3824401461180567,0.0697477765098073,0.951418262235996,-2.417559853881943,0.5302522234901926,0.648581737764004,-2.3824401461180567,0.5302522234901926,0.951418262235996,-2.417559853881943,0.0697477765098073,0.648581737764004,-2.3824401461180567,-0.6697477765098073,0.951418262235996,-2.417559853881943,-0.1104686902166883,-0.0040598345924108,-3.081316641780268,-0.0366369582727839,0.4027206672145727,0.6706801200085571
1.1,-0.677254248593737,0.6527606403230921,-2.3839193079833896,0.0772542485937369,0.947239359676908,-2.4160806920166102,0.522745751406263,0.6527606403230921,-2.3839193079833896,0.522745751406263,0.947239359676908,-2.4160806920166102,0.0772542485937369,0.6527606403230921,-2.3839193079833896,-0.677254248593737,0.947239359676908,-2.4160806920166102,-0.1089431637395879,-0.0033190871598217,-3.081032138768783,-0.0434449104719541,0.4260448301056669,0.6718926250160381
1.11,-0.6846844800613229,0.6570848503537581,-2.385414339550297,0.0846844800613228,0.942915149646242,-2.4145856604497027,0.5153155199386771,0.6570848503537581,-2.385414339550297,0.5153155199386771,0.942915149646242,-2.4145856604497027,0.0846844800613228,0.6570848503537581,-2.385414339550297,-0.6846844800613229,0.942915149646242,-2.4145856604497027,-0.1079059209633166,-0.0025833345527015,-3.0807326280671226,-0.0499528089089547,0.4478631698751685,0.6725087311760095
1.12,-0.6920311381711696,0.6615501003827698,-2.386923765403121,0.0920311381711695,0.9384498996172302,-2.413076234596879,0.5079688618288304,0.6615501003827698,-2.386923765403121,0.5079688618288304,0.9384498996172302,-2.413076234596879,0.0920311381711695,0.6615501003827698,-2.386923765403121,-0.6920311381711696,0.9384498996172302,-2.413076234596879,-0.1059545749594095,-0.0018547749802809,-3.080398656806508,-0.056224121276474,0.4682170398127812,0.6733440196094218
1.13,-0.6992869726586952,0.6661519837474448,-2.3884460959207785,0.0992869726586952,0.9338480162525552,-2.4115539040792213,0.5007130273413047,0.6661519837474448,-2.3884460959207785,0.5007130273413047,0.9338480162525552,-2.4115539040792213,0.0992869726586952,0.6661519837474448,-2.3884460959207785,-0.6992869726586952,0.9338480162525552,-2.4115539040792213,-0.1038519454206708,-0.0011376235962208,-3.080267379791642,-0.0623054094377068,0.4872134075251869,0.6741575717570092
1.14,-0.7064448228912681,0.6708859589444942,-2.3899798287468426,0.1064448228912681,0.929114041055506,-2.4100201712531573,0.4935551771087318,0.6708859589444942,-2.3899798287468426,0.4935551771087318,0.929114041055506,-2.4100201712531573,0.1064448228912681,0.6708859589444942,-2.3899798287468426,-0.7064448228912681,0.929114041055506,-2.4100201712531573,-0.1015839009353822,-0.000451029728581,-3.0803920262982305,-0.0682056636979971,0.5048443232076659,0.6748591226653562
1.15,-0.7134976249348868,0.6757473541119384,-2.391523450272184,0.1134976249348867,0.9242526458880616,-2.408476549727816,0.4865023750651132,0.6757473541119384,-2.391523450272184,0.4865023750651132,0.9242526458880616,-2.408476549727816,0.1134976249348867,0.6757473541119384,-2.391523450272184,-0.7134976249348868,0.9242526458880616,-2.408476549727816,-0.0991504897344576,0.0001927547010527,-3.0807760391050274,-0.0739267695627004,0.5210964342420824,0.6754302109766127
1.16,-0.7204384185254287,0.6807313716396701,-2.3930754371287195,0.1204384185254287,0.91926862836033,-2.4069245628712803,0.4795615814745712,0.6807313716396701,-2.3930754371287195,0.4795615814745712,0.91926862836033,-2.4069245628712803,0.1204384185254287,0.6807313716396701,-2.3930754371287195,-0.7204384185254287,0.91926862836033,-2.4069245628712803,-0.0965904931024051,0.0007868382587504,-3.0812950776321006,-0.0795085158931014,0.5359831371979048,0.675859808587116
1.17,-0.7272603539375927,0.6858330929041176,-2.3946342576927973,0.1272603539375927,0.9141669070958824,-2.4053657423072026,0.4727396460624072,0.6858330929041176,-2.3946342576927973,0.4727396460624072,0.9141669070958824,-2.4053657423072026,0.1272603539375927,0.6858330929041176,-2.3946342576927973,-0.7272603539375927,0.9141669070958824,-2.4053657423072026,-0.093957000715031,0.0013416608671478,-3.0816234336590878,-0.0850484547642941,0.5495551020844346,0.6761284482035499
1.18,-0.7339566987447491,0.6910474831223312,-2.396198373596718,0.1339566987447491,0.9089525168776688,-2.4038016264032818,0.4660433012552508,0.6910474831223312,-2.396198373596718,0.4660433012552508,0.9089525168776688,-2.4038016264032818,0.1339566987447491,0.6910474831223312,-2.396198373596718,-0.7339566987447491,0.9089525168776688,-2.4038016264032818,-0.0912617366043304,0.0018706058997528,-3.0816572942424174,-0.0905787166025046,0.561822849950419,0.6762289185479309
1.19,-0.7405208444630326,0.696369396320706,-2.3977662412469227,0.1405208444630325,0.903630603679294,-2.402233758753077,0.4594791555369674,0.696369396320706,-2.3977662412469227,0.4594791555369674,0.903630603679294,-2.402233758753077,0.1405208444630325,0.696369396320706,-2.3977662412469227,-0.7405208444630326,0.903630603679294,-2.402233758753077,-0.0885139597395713,0.0023732768905026,-3.081384667559618,-0.0961060883259638,0.5727813230447211,0.6761657250742457
1.2,-0.7469463130731182,0.701793580413438,-2.399336313347332,0.1469463130731182,0.8982064195865621,-2.400663686652668,0.4530536869268817,0.701793580413438,-2.399336313347332,0.4530536869268817,0.8982064195865621,-2.400663686652668,0.1469463130731182,0.701793580413438,-2.399336313347332,-0.7469463130731182,0.8982064195865621,-2.400663686652668,-0.0857231660712717,0.002842140526294,-3.080819761341983,-0.1016301103212416,0.5824207892272061,0.6759492076605819
1.21,-0.753226763413244,0.7073146823856972,-2.40090704042634,0.153226763413244,0.8926853176143029,-2.39909295957366,0.4467732365867559,0.7073146823856972,-2.40090704042634,0.4467732365867559,0.8926853176143029,-2.39909295957366,0.153226763413244,0.7073146823856972,-2.40090704042634,-0.753226763413244,0.8926853176143029,-2.39909295957366,-0.0828917982259667,0.0032705851195068,-3.0799627620092167,-0.1071378811714831,0.5907197163102941,0.6755974391347672
1.22,-0.7593559974371724,0.7129272535764076,-2.402476872365954,0.1593559974371724,0.8870727464235925,-2.397523127634045,0.4406440025628275,0.7129272535764076,-2.402476872365954,0.4406440025628275,0.8870727464235925,-2.397523127634045,0.1593559974371724,0.7129272535764076,-2.402476872365954,-0.7593559974371724,0.8870727464235925,-2.397523127634045,-0.0800251493151249,0.0036505521868971,-3.0788149172667194,-0.1126152009473621,0.5976556025618148,0.6751290676127404
1.23,-0.7653279663309129,0.7186257550554181,-2.404044259931581,0.1653279663309129,0.8813742449445819,-2.395955740068419,0.434672033669087,0.7186257550554181,-2.404044259931581,0.434672033669087,0.8813742449445819,-2.395955740068419,0.1653279663309129,0.7186257550554181,-2.404044259931581,-0.7653279663309129,0.8813742449445819,-2.395955740068419,-0.0771278099169468,0.0039743811892168,-3.0773749066319813,-0.1180482745950432,0.603206143638332,0.6745616731406658
1.24,-0.7711367764821722,0.7244045630897574,-2.4056076563009245,0.1711367764821721,0.8755954369102427,-2.3943923436990757,0.4288632235178278,0.7244045630897574,-2.4056076563009245,0.4288632235178278,0.8755954369102427,-2.3943923436990757,0.1711367764821721,0.7244045630897574,-2.4056076563009245,-0.7711367764821722,0.8755954369102427,-2.3943923436990757,-0.0742037486431208,0.0042349709776349,-3.075639141923498,-0.1234238726108883,0.6073495289714147,0.673911340002866
1.25,-0.7767766952966368,0.7302579746935792,-2.407165518590519,0.1767766952966368,0.8697420253064209,-2.392834481409481,0.4232233047033631,0.7302579746935792,-2.407165518590519,0.4232233047033631,0.8697420253064209,-2.392834481409481,0.1767766952966368,0.7302579746935792,-2.407165518590519,-0.7767766952966368,0.8697420253064209,-2.392834481409481,-0.0712566971607417,0.004425552149669,-3.07360313068905,-0.1287291817934999,0.6100645255858967,0.6731925011471633
1.26,-0.7822421568553528,0.7361802132563218,-2.408716309378369,0.1822421568553528,0.8638197867436783,-2.391283690621631,0.4177578431446471,0.7361802132563218,-2.408716309378369,0.4177578431446471,0.8638197867436783,-2.391283690621631,0.1822421568553528,0.7361802132563218,-2.408716309378369,-0.7822421568553528,0.8638197867436783,-2.391283690621631,-0.0682376908172203,0.004557215478465,-3.071253987127196,-0.1339560106066822,0.611328307402279,0.6724771821067382
1.27,-0.7875277674076149,0.7421654342435242,-2.4102584982211943,0.1875277674076148,0.8578345657564759,-2.389741501778805,0.4124722325923851,0.7421654342435242,-2.4102584982211943,0.4124722325923851,0.8578345657564759,-2.389741501778805,0.1875277674076148,0.7421654342435242,-2.4102584982211943,-0.7875277674076149,0.8578345657564759,-2.389741501778805,-0.0652278066197706,0.0046040895876564,-3.068730287836693,-0.139141314865723,0.6113199244323758,0.6717334390622571
1.28,-0.7926283106939473,0.7482077309646764,-2.4117905631648,0.1926283106939473,0.8517922690353237,-2.3882094368352003,0.4073716893060526,0.7482077309646764,-2.4117905631648,0.4073716893060526,0.8517922690353237,-2.3882094368352003,0.1926283106939473,0.7482077309646764,-2.4117905631648,-0.7926283106939473,0.8517922690353237,-2.3882094368352003,-0.0621878471951855,0.0045709822167621,-3.0659722512128558,-0.1443000695095715,0.6100687749041255,0.6709612848840069
