time,RPC,RPF,RPT,RMC,RMF,RMT,RAC,RAF,RAT,LPC,LPF,LPT,LMC,LMF,LMT,LAC,LAF,LAT,imu_roll,imu_pitch,imu_yaw,LAS,LMS,LPS,RAS,RMS,RPS,mantis_x,mantis_y,mantis_z
0.01,-0.592147310230468,0.9791554510824081,-2.428650615256656,-0.007852689769532073,0.620844548917592,-2.371349384743344,0.607852689769532,0.9791554510824081,-2.428650615256656,0.607852689769532,0.620844548917592,-2.371349384743344,-0.007852689769532073,0.9791554510824081,-2.428650615256656,-0.592147310230468,0.620844548917592,-2.371349384743344,-3.613270811328954e-06,8.382427031275424e-05,-3.1353146716169102,1.0,1.0,1.0,1.0,1.0,1.0,-0.0013647059570735228,-0.03706617143784628,0.12589263596087857
0.02,-0.5843023701176716,0.9762746119991611,-2.4273493486098867,-0.015697629882328343,0.623725388000839,-2.372650651390113,0.6156976298823283,0.9762746119991611,-2.4273493486098867,0.6156976298823283,0.623725388000839,-2.372650651390113,-0.015697629882328343,0.9762746119991611,-2.4273493486098867,-0.5843023701176716,0.623725388000839,-2.372650651390113,1.5929232640311375e-06,4.3132845536226755e-05,-3.1342738676413835,0.0,0.0,0.0,0.0,0.0,0.0,-0.000695927959083352,-0.03704270435726907,0.12225788649344886
0.03,-0.5764729216703715,0.9732198111557628,-2.4260210914579665,-0.023527078329628578,0.6267801888442373,-2.3739789085420333,0.6235270783296285,0.9732198111557628,-2.4260210914579665,0.6235270783296285,0.6267801888442373,-2.3739789085420333,-0.023527078329628578,0.9732198111557628,-2.4260210914579665,-0.5764729216703715,0.6267801888442373,-2.3739789085420333,0.00013527708978992257,6.598892720945354e-05,-3.1335398232616716,0.0,0.0,0.0,0.0,0.0,0.0,-0.00011201907902269044,-0.0386963077495196,0.12296762596141475
0.04,-0.5686666916089239,0.9699940632718351,-2.4246671546303418,-0.031333308391076065,0.630005936728165,-2.375332845369658,0.631333308391076,0.9699940632718351,-2.4246671546303418,0.631333308391076,0.630005936728165,-2.375332845369658,-0.031333308391076065,0.9699940632718351,-2.4246671546303418,-0.5686666916089239,0.630005936728165,-2.375332845369658,0.0016321711514747082,6.802909854361214e-05,-3.13331866005796,0.0,0.0,0.0,0.0,0.0,0.0,-4.343065854002911e-05,-0.04700600764416293,0.12347854365360166
0.05,-0.5608913837399423,0.9666005517710899,-2.4232888742991983,-0.03910861626005772,0.6333994482289101,-2.3767111257008016,0.6391086162600577,0.9666005517710899,-2.4232888742991983,0.6391086162600577,0.6333994482289101,-2.3767111257008016,-0.03910861626005772,0.9666005517710899,-2.4232888742991983,-0.5608913837399423,0.6333994482289101,-2.3767111257008016,0.002707649857758911,-0.0003285565917677849,-3.1327462822046734,0.0,0.0,0.0,0.0,1.0,0.0,-0.00039810802665554246,-0.053346254860122976,0.12388584095602141
0.06,-0.5531546713535689,0.9630426256396752,-2.421887610660822,-0.04684532864643115,0.6369573743603248,-2.378112389339178,0.6468453286464311,0.9630426256396752,-2.421887610660822,0.6468453286464311,0.6369573743603248,-2.378112389339178,-0.04684532864643115,0.9630426256396752,-2.421887610660822,-0.5531546713535689,0.6369573743603248,-2.378112389339178,0.002130058596668352,-0.000786422486609789,-3.131016093748465,1.0,0.0,1.0,0.0,1.0,0.0,-0.0010828049921310053,-0.05889166738278971,0.12508352567006054
0.07,-0.5454641896508643,0.9593237961211287,-2.420464746593246,-0.05453581034913564,0.6406762038788714,-2.379535253406754,0.6545358103491357,0.9593237961211287,-2.420464746593246,0.6545358103491357,0.6406762038788714,-2.379535253406754,-0.05453581034913564,0.9593237961211287,-2.420464746593246,-0.5454641896508643,0.6406762038788714,-2.379535253406754,-0.004989589281300187,-0.0011228592574646934,-3.128633528341829,0.0,0.0,0.0,0.0,1.0,0.0,-0.0021488996646174315,-0.06942485331361596,0.1262008703014026
0.08,-0.5378275282087863,0.9554477332512058,-2.4190216862915213,-0.0621724717912137,0.6445522667487943,-2.3809783137084786,0.6621724717912136,0.9554477332512058,-2.4190216862915213,0.6621724717912136,0.6445522667487943,-2.3809783137084786,-0.0621724717912137,0.9554477332512058,-2.4190216862915213,-0.5378275282087863,0.6445522667487943,-2.3809783137084786,-0.008542319207118563,-0.0013993295577798938,-3.1255120493973854,1.0,0.0,0.0,0.0,1.0,0.0,-0.0034178874716261918,-0.07984279905678941,0.12911164930150426
0.09,-0.5302522234901926,0.9514182622359961,-2.417559853881943,-0.06974777650980732,0.648581737764004,-2.3824401461180567,0.6697477765098073,0.9514182622359961,-2.417559853881943,0.6697477765098073,0.648581737764004,-2.3824401461180567,-0.06974777650980732,0.9514182622359961,-2.417559853881943,-0.5302522234901926,0.648581737764004,-2.3824401461180567,-0.010220833805867947,0.0004399097370409273,-3.120864127002553,0.0,0.0,1.0,0.0,0.0,0.0,-0.004562251665840177,-0.09016000997178147,0.1310326235578903
0.1,-0.5227457514062631,0.947239359676908,-2.4160806920166102,-0.07725424859373685,0.6527606403230921,-2.3839193079833896,0.6772542485937368,0.947239359676908,-2.4160806920166102,0.6772542485937368,0.6527606403230921,-2.3839193079833896,-0.07725424859373685,0.947239359676908,-2.4160806920166102,-0.5227457514062631,0.6527606403230921,-2.3839193079833896,-0.01500643716283552,-0.0010850742755837417,-3.12027794008875,1.0,0.0,1.0,0.0,0.0,0.0,-0.005072792887341744,-0.10246328705962587,0.1333154724517811
0.11,-0.5153155199386772,0.942915149646242,-2.4145856604497027,-0.08468448006132284,0.6570848503537581,-2.385414339550297,0.6846844800613228,0.942915149646242,-2.4145856604497027,0.6846844800613228,0.6570848503537581,-2.385414339550297,-0.08468448006132284,0.942915149646242,-2.4145856604497027,-0.5153155199386772,0.6570848503537581,-2.385414339550297,-0.021672258262709486,-0.0017823755602747377,-3.1199863648520934,1.0,0.0,0.0,0.0,0.0,0.0,-0.005608419652890797,-0.11660166112151298,0.13621825381708033
0.12,-0.5079688618288305,0.9384498996172302,-2.413076234596879,-0.09203113817116948,0.6615501003827698,-2.386923765403121,0.6920311381711695,0.9384498996172302,-2.413076234596879,0.6920311381711695,0.6615501003827698,-2.386923765403121,-0.09203113817116948,0.9384498996172302,-2.413076234596879,-0.5079688618288305,0.6615501003827698,-2.386923765403121,-0.024061334894547523,-0.0019401862022977823,-3.1195716196776915,1.0,0.0,1.0,0.0,1.0,0.0,-0.00624737641433566,-0.13177780293996535,0.14004607903686694
0.13,-0.5007130273413049,0.9338480162525553,-2.4115539040792213,-0.09928697265869516,0.6661519837474448,-2.3884460959207785,0.6992869726586951,0.9338480162525553,-2.4115539040792213,0.6992869726586951,0.6661519837474448,-2.3884460959207785,-0.09928697265869516,0.9338480162525553,-2.4115539040792213,-0.5007130273413049,0.6661519837474448,-2.3884460959207785,-0.025095834507067465,-0.0035365348429913872,-3.1187569970705598,1.0,1.0,1.0,0.0,0.0,0.0,-0.00715464624088485,-0.14786978851276086,0.14350252824629692
0.14,-0.4935551771087318,0.9291140410555059,-2.4100201712531573,-0.10644482289126818,0.6708859589444942,-2.3899798287468426,0.7064448228912682,0.9291140410555059,-2.4100201712531573,0.7064448228912682,0.6708859589444942,-2.3899798287468426,-0.10644482289126818,0.9291140410555059,-2.4100201712531573,-0.4935551771087318,0.6708859589444942,-2.3899798287468426,-0.02888390654674906,-0.004357834672297845,-3.116282534808029,1.0,0.0,1.0,0.0,1.0,0.0,-0.007787449261234008,-0.1662187102795359,0.14675058320847634
0.15,-0.4865023750651133,0.9242526458880618,-2.4084765497278164,-0.11349762493488669,0.6757473541119383,-2.3915234502721834,0.7134976249348867,0.9242526458880618,-2.4084765497278164,0.7134976249348867,0.6757473541119383,-2.3915234502721834,-0.11349762493488669,0.9242526458880618,-2.4084765497278164,-0.4865023750651133,0.6757473541119383,-2.3915234502721834,-0.020654577054846572,-0.00562326239425697,-3.1122476047822905,1.0,1.0,1.0,0.0,0.0,0.0,-0.008456394185732272,-0.18577693057362243,0.1501087760999097
0.16,-0.4795615814745712,0.91926862836033,-2.4069245628712803,-0.12043841852542883,0.6807313716396701,-2.3930754371287195,0.7204384185254288,0.91926862836033,-2.4069245628712803,0.7204384185254288,0.6807313716396701,-2.3930754371287195,-0.12043841852542883,0.91926862836033,-2.4069245628712803,-0.4795615814745712,0.6807313716396701,-2.3930754371287195,-0.019434905222397,-0.0067639217034729925,-3.1072167307066363,1.0,0.0,0.0,1.0,1.0,1.0,-0.008806835676654658,-0.20770881619928083,0.1520438563145552
0.17,-0.47273964606240715,0.9141669070958823,-2.4053657423072026,-0.12726035393759283,0.6858330929041178,-2.3946342576927973,0.7272603539375928,0.9141669070958823,-2.4053657423072026,0.7272603539375928,0.6858330929041178,-2.3946342576927973,-0.12726035393759283,0.9141669070958823,-2.4053657423072026,-0.47273964606240715,0.6858330929041178,-2.3946342576927973,-0.008629722051668452,-0.0043992569966319435,-3.1020439681432315,1.0,1.0,1.0,0.0,1.0,1.0,-0.009392094960047498,-0.2307418647094711,0.15400996521284946
0.18,-0.46604330125525084,0.908952516877669,-2.4038016264032818,-0.13395669874474916,0.6910474831223311,-2.396198373596718,0.7339566987447491,0.908952516877669,-2.4038016264032818,0.7339566987447491,0.6910474831223311,-2.396198373596718,-0.13395669874474916,0.908952516877669,-2.4038016264032818,-0.46604330125525084,0.6910474831223311,-2.396198373596718,-0.0060058561995187994,-0.004195052249822682,-3.096546466287193,1.0,0.0,1.0,1.0,1.0,0.0,-0.009380636872526075,-0.2536552387511668,0.15511059778124203
0.19,-0.45947915553696733,0.903630603679294,-2.402233758753077,-0.14052084446303265,0.696369396320706,-2.3977662412469227,0.7405208444630327,0.903630603679294,-2.402233758753077,0.7405208444630327,0.696369396320706,-2.3977662412469227,-0.14052084446303265,0.903630603679294,-2.402233758753077,-0.45947915553696733,0.696369396320706,-2.3977662412469227,-0.0009158654156532463,-0.001448633778161131,-3.09175193064679,1.0,1.0,0.0,0.0,1.0,0.0,-0.009520056724330069,-0.27698416407520293,0.15642549684733598
0.2,-0.4530536869268817,0.898206419586562,-2.400663686652668,-0.14694631307311828,0.7017935804134381,-2.399336313347332,0.7469463130731182,0.898206419586562,-2.400663686652668,0.7469463130731182,0.7017935804134381,-2.399336313347332,-0.14694631307311828,0.898206419586562,-2.400663686652668,-0.4530536869268817,0.7017935804134381,-2.399336313347332,0.00398990450839247,0.002201110915799587,-3.0863856037017614,1.0,1.0,1.0,1.0,0.0,1.0,-0.009250290134390724,-0.30003236052336557,0.15773148074405796
0.21,-0.4467732365867559,0.8926853176143029,-2.39909295957366,-0.1532267634132441,0.7073146823856972,-2.4009070404263397,0.7532267634132441,0.8926853176143029,-2.39909295957366,0.7532267634132441,0.7073146823856972,-2.4009070404263397,-0.1532267634132441,0.8926853176143029,-2.39909295957366,-0.4467732365867559,0.7073146823856972,-2.4009070404263397,0.006428165663062528,0.004319333718060315,-3.081191576580344,1.0,1.0,1.0,1.0,0.0,1.0,-0.008826922588234228,-0.3231448997456179,0.15946697402202722
0.22,-0.44064400256282754,0.8870727464235924,-2.397523127634045,-0.1593559974371724,0.7129272535764077,-2.4024768723659546,0.7593559974371724,0.8870727464235924,-2.397523127634045,0.7593559974371724,0.7129272535764077,-2.4024768723659546,-0.1593559974371724,0.8870727464235924,-2.397523127634045,-0.44064400256282754,0.7129272535764077,-2.4024768723659546,0.009688419264193485,0.005493557146813758,-3.0756908833255507,1.0,1.0,1.0,1.0,1.0,1.0,-0.008345433738855398,-0.34613644709330466,0.16223166525547789
0.23,-0.434672033669087,0.8813742449445818,-2.395955740068419,-0.16532796633091296,0.7186257550554183,-2.404044259931581,0.7653279663309129,0.8813742449445818,-2.395955740068419,0.7653279663309129,0.7186257550554183,-2.404044259931581,-0.16532796633091296,0.8813742449445818,-2.395955740068419,-0.434672033669087,0.7186257550554183,-2.404044259931581,0.014262484070537259,0.007016047204094207,-3.070435515957277,1.0,1.0,1.0,1.0,1.0,1.0,-0.007660588059158179,-0.36954303290917384,0.16476857768308606
0.24,-0.4288632235178278,0.8755954369102427,-2.3943923436990753,-0.17113677648217215,0.7244045630897574,-2.4056076563009245,0.7711367764821722,0.8755954369102427,-2.3943923436990753,0.7711367764821722,0.7244045630897574,-2.4056076563009245,-0.17113677648217215,0.8755954369102427,-2.3943923436990753,-0.4288632235178278,0.7244045630897574,-2.4056076563009245,0.018063054031081157,0.007556861218728813,-3.065792943321148,1.0,1.0,0.0,1.0,0.0,1.0,-0.006435909038600134,-0.39312042340836395,0.16660570545102193
0.25,-0.4232233047033631,0.8697420253064209,-2.392834481409481,-0.1767766952966369,0.7302579746935792,-2.407165518590519,0.7767766952966368,0.8697420253064209,-2.392834481409481,0.7767766952966368,0.7302579746935792,-2.407165518590519,-0.1767766952966369,0.8697420253064209,-2.392834481409481,-0.4232233047033631,0.7302579746935792,-2.407165518590519,0.022646789453104627,0.010520707300561332,-3.061951324978702,1.0,1.0,1.0,0.0,1.0,1.0,-0.0044785793476955224,-0.4169050315587863,0.16851039756015967
0.26,-0.4177578431446471,0.8638197867436783,-2.391283690621631,-0.1822421568553529,0.7361802132563218,-2.408716309378369,0.7822421568553528,0.8638197867436783,-2.391283690621631,0.7822421568553528,0.7361802132563218,-2.408716309378369,-0.1822421568553529,0.8638197867436783,-2.391283690621631,-0.4177578431446471,0.7361802132563218,-2.408716309378369,0.02772974711801496,0.012473253836404196,-3.057756001423647,1.0,1.0,1.0,1.0,1.0,1.0,-0.0019399022494654356,-0.4405523386445032,0.17067395909606964
0.27,-0.4124722325923851,0.8578345657564759,-2.3897415017788055,-0.1875277674076149,0.7421654342435242,-2.4102584982211943,0.7875277674076149,0.8578345657564759,-2.3897415017788055,0.7875277674076149,0.7421654342435242,-2.4102584982211943,-0.1875277674076149,0.8578345657564759,-2.3897415017788055,-0.4124722325923851,0.7421654342435242,-2.4102584982211943,0.031608715573706876,0.013493088338504189,-3.053949095017486,1.0,1.0,1.0,1.0,1.0,1.0,0.0011066509981845513,-0.46445519586164313,0.17286378196683147
0.28,-0.40737168930605266,0.8517922690353237,-2.3882094368352003,-0.1926283106939473,0.7482077309646764,-2.4117905631647996,0.7926283106939473,0.8517922690353237,-2.3882094368352003,0.7926283106939473,0.7482077309646764,-2.4117905631647996,-0.1926283106939473,0.8517922690353237,-2.3882094368352003,-0.40737168930605266,0.7482077309646764,-2.4117905631647996,0.03621448802116965,0.015122915901790704,-3.0505653768614565,1.0,1.0,1.0,1.0,1.0,1.0,0.004703177519172573,-0.48847518492451847,0.17481681193519366
0.29,-0.40246124690607743,0.84569885959759,-2.386689007753947,-0.19753875309392258,0.7543011404024101,-2.413310992246053,0.7975387530939225,0.84569885959759,-2.386689007753947,0.7975387530939225,0.7543011404024101,-2.413310992246053,-0.19753875309392258,0.84569885959759,-2.386689007753947,-0.40246124690607743,0.7543011404024101,-2.413310992246053,0.04178898827340007,0.015066769416477483,-3.047501350153801,1.0,1.0,0.0,1.0,0.0,1.0,0.00879234955787747,-0.5124482272348141,0.1760531333114297
0.3,-0.3977457514062631,0.8395603509027237,-2.385181715014985,-0.20225424859373686,0.7604396490972763,-2.4148182849850146,0.8022542485937368,0.8395603509027237,-2.385181715014985,0.8022542485937368,0.7604396490972763,-2.4148182849850146,-0.20225424859373686,0.8395603509027237,-2.385181715014985,-0.3977457514062631,0.7604396490972763,-2.4148182849850146,0.04629000817146541,0.01624661145563085,-3.044754823118706,1.0,1.0,1.0,1.0,1.0,1.0,0.013453803277820281,-0.5364833381159669,0.177773279635573
0.31,-0.39322985643135955,0.8333828009176955,-2.38368904613427,-0.20677014356864046,0.7666171990823046,-2.4163109538657297,0.8067701435686404,0.8333828009176955,-2.38368904613427,0.8067701435686404,0.7666171990823046,-2.4163109538657297,-0.20677014356864046,0.8333828009176955,-2.38368904613427,-0.39322985643135955,0.7666171990823046,-2.4163109538657297,0.05411645516889347,0.016345303615235285,-3.0418293343987926,1.0,1.0,1.0,1.0,0.0,1.0,0.018201931609741446,-0.560274792069236,0.17882233126668196
0.32,-0.3889180186244962,0.8271723061385158,-2.382212474195775,-0.21108198137550377,0.7728276938614843,-2.4177875258042247,0.8110819813755037,0.8271723061385158,-2.382212474195775,0.8110819813755037,0.7728276938614843,-2.4177875258042247,-0.21108198137550377,0.8271723061385158,-2.382212474195775,-0.3889180186244962,0.7728276938614843,-2.4177875258042247,0.05955853768016322,0.01754623103272438,-3.039466497805744,1.0,1.0,1.0,1.0,1.0,1.0,0.023034635142110453,-0.5838196717184005,0.17959619990010278
0.33,-0.38481449324901407,0.8209349955737297,-2.380753456397735,-0.2151855067509859,0.7790650044262704,-2.4192465436022648,0.8151855067509859,0.8209349955737297,-2.380753456397735,0.8151855067509859,0.7790650044262704,-2.4192465436022648,-0.2151855067509859,0.8209349955737297,-2.380753456397735,-0.38481449324901407,0.7790650044262704,-2.4192465436022648,0.06734621816606244,0.017976029643685415,-3.0371076334495273,1.0,1.0,1.0,1.0,1.0,1.0,0.027779148969698166,-0.6072198109006158,0.17978351731920775
0.34,-0.38092332998903405,0.814677024695825,-2.379313432614567,-0.21907667001096592,0.785322975304175,-2.4206865673854328,0.819076670010966,0.814677024695825,-2.379313432614567,0.819076670010966,0.785322975304175,-2.4206865673854328,-0.21907667001096592,0.814677024695825,-2.379313432614567,-0.38092332998903405,0.785322975304175,-2.4206865673854328,0.07453583084762627,0.018156962620271888,-3.034961113162041,1.0,1.0,1.0,1.0,0.0,1.0,0.03237813433791988,-0.6303230794125873,0.17981315433956765
0.35000000000000003,-0.37724836895290803,0.8084045693665243,-2.3778938239758887,-0.22275163104709195,0.7915954306334758,-2.422106176024111,0.8227516310470919,0.8084045693665243,-2.3778938239758887,0.8227516310470919,0.7915954306334758,-2.422106176024111,-0.22275163104709195,0.8084045693665243,-2.3778938239758887,-0.37724836895290803,0.7915954306334758,-2.422106176024111,0.07834260773563173,0.018115721340054812,-3.0331112387506742,1.0,1.0,1.0,1.0,1.0,1.0,0.036431417076426414,-0.6519931374245285,0.18070957750551675
0.36,-0.3737932368834951,0.8021238197419547,-2.3764960314640353,-0.2262067631165049,0.7978761802580454,-2.4235039685359645,0.8262067631165049,0.8021238197419547,-2.3764960314640353,0.8262067631165049,0.7978761802580454,-2.4235039685359645,-0.2262067631165049,0.8021238197419547,-2.3764960314640353,-0.3737932368834951,0.7978761802580454,-2.4235039685359645,0.08397013488012563,0.01726122800212942,-3.0316642166918717,1.0,1.0,0.0,1.0,0.0,1.0,0.040692790365932235,-0.6731994008484745,0.18280775449668993
0.37,-0.3705613435790047,0.7958409741637116,-2.3751214345314584,-0.22943865642099529,0.8041590258362885,-2.4248785654685414,0.8294386564209952,0.7958409741637116,-2.3751214345314584,0.8294386564209952,0.8041590258362885,-2.4248785654685414,-0.22943865642099529,0.7958409741637116,-2.3751214345314584,-0.3705613435790047,0.8041590258362885,-2.4248785654685414,0.08648062841001075,0.016085050843346015,-3.0291375330483095,1.0,1.0,1.0,1.0,1.0,1.0,0.04306603068571461,-0.6911500214238846,0.1862552875415812
0.38,-0.36755587852793714,0.7895622330418437,-2.3737713897393737,-0.23244412147206284,0.8104377669581564,-2.426228610260626,0.8324441214720628,0.7895622330418437,-2.3737713897393737,0.8324441214720628,0.8104377669581564,-2.426228610260626,-0.23244412147206284,0.7895622330418437,-2.3737713897393737,-0.36755587852793714,0.8104377669581564,-2.426228610260626,0.09154670827813419,0.015706709564627684,-3.0277569334772645,1.0,1.0,1.0,1.0,1.0,1.0,0.04598223336605175,-0.7084547597503728,0.19098276231363392
0.39,-0.3647798077614436,0.7832937927357966,-2.3724472294189973,-0.23522019223855636,0.8167062072642035,-2.4275527705810025,0.8352201922385564,0.7832937927357966,-2.3724472294189973,0.8352201922385564,0.8167062072642035,-2.4275527705810025,-0.23522019223855636,0.7832937927357966,-2.3724472294189973,-0.3647798077614436,0.8167062072642035,-2.4275527705810025,0.09598655863131322,0.01586985844690572,-3.0267248463674448,0.0,1.0,0.0,1.0,0.0,1.0,0.049502285666105185,-0.725489265475534,0.19595363524380924
0.4,-0.36223587092621157,0.7770418394393545,-2.371150260356698,-0.23776412907378838,0.8229581605606456,-2.4288497396433018,0.8377641290737884,0.7770418394393545,-2.371150260356698,0.8377641290737884,0.8229581605606456,-2.4288497396433018,-0.23776412907378838,0.7770418394393545,-2.371150260356698,-0.36223587092621157,0.8229581605606456,-2.4288497396433018,0.10068900497395415,0.016435500825700125,-3.026517390828184,1.0,1.0,1.0,1.0,1.0,1.0,0.05299229824034865,-0.7424376019887684,0.20179535791068523
0.41000000000000003,-0.3599265785807642,0.7708125430756133,-2.3698817625043556,-0.24007342141923577,0.8291874569243868,-2.4301182374956443,0.8400734214192358,0.7708125430756133,-2.3698817625043556,0.8400734214192358,0.8291874569243868,-2.4301182374956443,-0.24007342141923577,0.7708125430756133,-2.3698817625043556,-0.3599265785807642,0.8291874569243868,-2.4301182374956443,0.1052348075843424,0.01658274099419439,-3.026344824921244,1.0,1.0,1.0,1.0,0.0,1.0,0.05685372748753846,-0.7586651411827923,0.2066081261153584
0.42,-0.3578542097178422,0.7646120512080122,-2.3686429877162025,-0.24214579028215777,0.8353879487919879,-2.4313570122837973,0.8421457902821577,0.7646120512080122,-2.3686429877162025,0.8421457902821577,0.8353879487919879,-2.4313570122837973,-0.24214579028215777,0.7646120512080122,-2.3686429877162025,-0.3578542097178422,0.8353879487919879,-2.4313570122837973,0.10874748402576329,0.016530431605667424,-3.025814873657885,0.0,1.0,0.0,1.0,1.0,1.0,0.061158223038116744,-0.7746360354646522,0.21223763503301457
0.43,-0.3560208095153131,0.7584464829734299,-2.3674351585133957,-0.24397919048468683,0.8415535170265702,-2.432564841486604,0.8439791904846868,0.7584464829734299,-2.3674351585133957,0.8439791904846868,0.8415535170265702,-2.432564841486604,-0.24397919048468683,0.7584464829734299,-2.3674351585133957,-0.3560208095153131,0.8415535170265702,-2.432564841486604,0.11348493113589596,0.016747121584621324,-3.0256902172110736,1.0,1.0,1.0,1.0,1.0,1.0,0.06526483009236327,-0.7904738660787601,0.21805444466313506
0.44,-0.3544281873178278,0.7523219230433359,-2.3662594668775347,-0.24557181268217215,0.8476780769566642,-2.433740533122465,0.8455718126821721,0.7523219230433359,-2.3662594668775347,0.8455718126821721,0.8476780769566642,-2.433740533122465,-0.24557181268217215,0.7523219230433359,-2.3662594668775347,-0.3544281873178278,0.8476780769566642,-2.433740533122465,0.11712171103465145,0.017108379101716246,-3.025452430097224,1.0,1.0,0.0,1.0,0.0,1.0,0.06933048779698031,-0.8055547909728648,0.22334859201816748
0.45,-0.35307791485121554,0.7462444156189543,-2.365117073074322,-0.24692208514878444,0.8537555843810458,-2.434882926925678,0.8469220851487844,0.7462444156189543,-2.365117073074322,0.8469220851487844,0.8537555843810458,-2.434882926925678,-0.24692208514878444,0.7462444156189543,-2.365117073074322,-0.35307791485121554,0.8537555843810458,-2.434882926925678,0.12042473650938804,0.017793979663134306,-3.025190813114243,0.0,1.0,1.0,1.0,1.0,1.0,0.07308135387828797,-0.8201909494988558,0.22967095919564026
0.46,-0.3519713246713805,0.7402199584663662,-2.364009104508518,-0.24802867532861947,0.8597800415336339,-2.4359908954914817,0.8480286753286195,0.7402199584663662,-2.364009104508518,0.8480286753286195,0.8597800415336339,-2.4359908954914817,-0.24802867532861947,0.7402199584663662,-2.364009104508518,-0.3519713246713805,0.8597800415336339,-2.4359908954914817,0.12447751814319505,0.01651263582987109,-3.025245047519617,1.0,1.0,0.0,1.0,0.0,1.0,0.0764895144665594,-0.8341985439928549,0.23521050732453666
0.47000000000000003,-0.35110950884923,0.73425449699744,-2.362936654611331,-0.24889049115077,0.86574550300256,-2.437063345388669,0.84889049115077,0.73425449699744,-2.362936654611331,0.84889049115077,0.86574550300256,-2.437063345388669,-0.24889049115077,0.73425449699744,-2.362936654611331,-0.35110950884923,0.86574550300256,-2.437063345388669,0.12724960365123328,0.017321025768514436,-3.0253412347266306,1.0,1.0,1.0,1.0,1.0,1.0,0.07930043723480693,-0.8474552333464397,0.24148403405626045
0.48,-0.3504933178929321,0.7283539184024267,-2.3619007817613302,-0.2495066821070679,0.8716460815975734,-2.4380992182386696,0.8495066821070678,0.7283539184024267,-2.3619007817613302,0.8495066821070678,0.8716460815975734,-2.4380992182386696,-0.2495066821070679,0.7283539184024267,-2.3619007817613302,-0.3504933178929321,0.8716460815975734,-2.4380992182386696,0.13081166463383442,0.017647624913804047,-3.025744192472914,0.0,1.0,1.0,1.0,1.0,1.0,0.08142538511055858,-0.8602708032343749,0.24779366405352415
0.49,-0.3501233599085671,0.7225240458400137,-2.3609025082399566,-0.2498766400914329,0.8774759541599864,-2.439097491760043,0.8498766400914328,0.7225240458400137,-2.3609025082399566,0.8498766400914328,0.8774759541599864,-2.439097491760043,-0.2498766400914329,0.7225240458400137,-2.3609025082399566,-0.3501233599085671,0.8774759541599864,-2.439097491760043,0.13358364247605556,0.017327663669079164,-3.026077898046082,1.0,1.0,0.0,1.0,0.0,1.0,0.08291863919651055,-0.8723828781242465,0.2543049418124165
0.5,-0.35,0.7167706326905716,-2.359942819222653,-0.25,0.8832293673094285,-2.440057180777347,0.85,0.7167706326905716,-2.359942819222653,0.85,0.8832293673094285,-2.440057180777347,-0.25,0.7167706326905716,-2.359942819222653,-0.35,0.8832293673094285,-2.440057180777347,0.13562261286745197,0.017621603818945862,-3.0268568948889314,1.0,1.0,1.0,1.0,1.0,1.0,0.08339109274895472,-0.8835227868046095,0.26143898475114447
0.51,-0.3501233599085671,0.7110993568782604,-2.359022661806615,-0.2498766400914329,0.8889006431217397,-2.440977338193385,0.8498766400914328,0.7110993568782604,-2.359022661806615,0.8498766400914328,0.8889006431217397,-2.440977338193385,-0.2498766400914329,0.7110993568782604,-2.359022661806615,-0.3501233599085671,0.8889006431217397,-2.440977338193385,0.13813958346306915,0.017229913713735875,-3.027406949147084,0.0,1.0,1.0,1.0,0.0,1.0,0.08320994132152598,-0.8938557171026503,0.26831508909350343
0.52,-0.3504933178929321,0.7055158152676058,-2.3581429440761195,-0.2495066821070679,0.8944841847323943,-2.4418570559238804,0.8495066821070678,0.7055158152676058,-2.3581429440761195,0.8495066821070678,0.8944841847323943,-2.4418570559238804,-0.2495066821070679,0.7055158152676058,-2.3581429440761195,-0.3504933178929321,0.8944841847323943,-2.4418570559238804,0.1396853276808043,0.01662880159283004,-3.027968199072589,0.0,1.0,0.0,1.0,1.0,1.0,0.08252526035416713,-0.9030230538533816,0.27586887780727415
0.53,-0.35110950884923,0.700025518140068,-2.357304534206357,-0.24889049115077,0.8999744818599321,-2.442695465793643,0.84889049115077,0.700025518140068,-2.357304534206357,0.84889049115077,0.8999744818599321,-2.442695465793643,-0.24889049115077,0.700025518140068,-2.357304534206357,-0.35110950884923,0.8999744818599321,-2.442695465793643,0.1412184374380111,0.01601002285953515,-3.028575759435471,1.0,1.0,0.0,1.0,1.0,1.0,0.0815394197365828,-0.9106181426246082,0.28322767011110056
0.54,-0.35197132467138054,0.6946338837560606,-2.356508259606647,-0.24802867532861944,0.9053661162439395,-2.4434917403933527,0.8480286753286195,0.6946338837560606,-2.356508259606647,0.8480286753286195,0.9053661162439395,-2.4434917403933527,-0.24802867532861944,0.6946338837560606,-2.356508259606647,-0.35197132467138054,0.9053661162439395,-2.4434917403933527,0.14212466181453895,0.015261547043884148,-3.0290327847167586,1.0,1.0,0.0,1.0,0.0,1.0,0.08031645132805326,-0.9170558227679143,0.2909997560095862
0.55,-0.35307791485121554,0.6893462330077806,-2.3557549061038836,-0.24692208514878441,0.9106537669922194,-2.444245093896116,0.8469220851487844,0.6893462330077806,-2.3557549061038836,0.8469220851487844,0.9106537669922194,-2.444245093896116,-0.24692208514878441,0.6893462330077806,-2.3557549061038836,-0.35307791485121554,0.9106537669922194,-2.444245093896116,0.1423364648729113,0.014671869193909797,-3.029333008842527,1.0,1.0,0.0,1.0,1.0,1.0,0.07934010741899132,-0.9220952096861361,0.29959273338990633
0.56,-0.3544281873178278,0.6841677841681307,-2.3550452171670213,-0.24557181268217215,0.9158322158318694,-2.4449547828329785,0.8455718126821721,0.6841677841681307,-2.3550452171670213,0.8455718126821721,0.9158322158318694,-2.4449547828329785,-0.24557181268217215,0.6841677841681307,-2.3550452171670213,-0.3544281873178278,0.9158322158318694,-2.4449547828329785,0.14280110657163825,0.014109896347817244,-3.0295201051078604,1.0,1.0,0.0,1.0,1.0,1.0,0.0785711968259479,-0.9259509047270833,0.308089590205694
0.5700000000000001,-0.3560208095153131,0.679103647740914,-2.3543798931733577,-0.24397919048468686,0.9208963522590861,-2.445620106826642,0.8439791904846868,0.679103647740914,-2.3543798931733577,0.8439791904846868,0.9208963522590861,-2.445620106826642,-0.24397919048468686,0.679103647740914,-2.3543798931733577,-0.3560208095153131,0.9208963522590861,-2.445620106826642,0.14234687581437547,0.01391967351230381,-3.0294823297026814,0.0,1.0,0.0,1.0,1.0,1.0,0.07807996891935019,-0.9283219263561333,0.31725581878621867
0.58,-0.3578542097178422,0.6741588214173836,-2.3537595907173503,-0.2421457902821578,0.9258411785826165,-2.4462404092826495,0.8421457902821577,0.6741588214173836,-2.3537595907173503,0.8421457902821577,0.9258411785826165,-2.4462404092826495,-0.2421457902821578,0.6741588214173836,-2.3537595907173503,-0.3578542097178422,0.9258411785826165,-2.4462404092826495,0.14153870847953448,0.014090308347796262,-3.029181503752028,0.0,1.0,0.0,1.0,1.0,1.0,0.0782094386300202,-0.9289614020171214,0.3269518437382807
0.59,-0.3599265785807642,0.6693381851441245,-2.3531849219626326,-0.24007342141923577,0.9306618148558756,-2.446815078037367,0.8400734214192358,0.6693381851441245,-2.3531849219626326,0.8400734214192358,0.9306618148558756,-2.446815078037367,-0.24007342141923577,0.6693381851441245,-2.3531849219626326,-0.3599265785807642,0.9306618148558756,-2.446815078037367,0.14057993217199155,0.014465881516158028,-3.0286950073310908,0.0,1.0,0.0,1.0,0.0,1.0,0.07901620033962081,-0.9279471889269486,0.33685061720226955
0.6,-0.36223587092621157,0.6646464963071361,-2.3526564540378847,-0.2377641290737884,0.935353503692864,-2.447343545962115,0.8377641290737884,0.6646464963071361,-2.3526564540378847,0.8377641290737884,0.935353503692864,-2.447343545962115,-0.2377641290737884,0.6646464963071361,-2.3526564540378847,-0.36223587092621157,0.935353503692864,-2.447343545962115,0.13871400744535173,0.015136156293957804,-3.0281415123341526,0.0,1.0,0.0,1.0,1.0,1.0,0.0804930194135676,-0.9250679169909429,0.34749403126600464
0.61,-0.3647798077614436,0.6600883850368661,-2.3521747084771456,-0.23522019223855636,0.939911614963134,-2.447825291522854,0.8352201922385564,0.6600883850368661,-2.3521747084771456,0.8352201922385564,0.939911614963134,-2.447825291522854,-0.23522019223855636,0.6600883850368661,-2.3521747084771456,-0.3647798077614436,0.939911614963134,-2.447825291522854,0.13698297047138214,0.015786395388849794,-3.0273451536305025,0.0,1.0,0.0,1.0,1.0,1.0,0.0823965296309235,-0.9206413126528841,0.3581401698092982
0.62,-0.36755587852793714,0.6556683496388306,-2.3517401607051225,-0.23244412147206286,0.9443316503611695,-2.4482598392948773,0.8324441214720628,0.6556683496388306,-2.3517401607051225,0.8324441214720628,0.9443316503611695,-2.4482598392948773,-0.23244412147206286,0.6556683496388306,-2.3517401607051225,-0.36755587852793714,0.9443316503611695,-2.4482598392948773,0.13424117137350866,0.01651643040195654,-3.0265429553095786,0.0,1.0,0.0,1.0,1.0,1.0,0.0842874235057333,-0.9144074103502734,0.369457292350955
0.63,-0.37056134357900467,0.6513907521543303,-2.3513532395680024,-0.2294386564209953,0.9486092478456698,-2.4486467604319975,0.8294386564209952,0.6513907521543303,-2.3513532395680024,0.8294386564209952,0.9486092478456698,-2.4486467604319975,-0.2294386564209953,0.6513907521543303,-2.3513532395680024,-0.37056134357900467,0.9486092478456698,-2.4486467604319975,0.13116659287617893,0.017098119673792874,-3.025841493442627,0.0,1.0,0.0,1.0,1.0,1.0,0.08594685167503383,-0.9063882363091442,0.3812521827694441
0.64,-0.3737932368834951,0.6472598140556417,-2.351014326910234,-0.22620676311650487,0.9527401859443584,-2.4489856730897657,0.8262067631165049,0.6472598140556417,-2.351014326910234,0.8262067631165049,0.9527401859443584,-2.4489856730897657,-0.22620676311650487,0.6472598140556417,-2.351014326910234,-0.3737932368834951,0.9527401859443584,-2.4489856730897657,0.12766885391670166,0.017521196548578654,-3.025227539915843,0.0,1.0,0.0,1.0,1.0,1.0,0.08722056682253278,-0.8965574650202592,0.3934139498105604
0.65,-0.37724836895290803,0.6432796120799342,-2.3507237571976933,-0.22275163104709197,0.9567203879200659,-2.4492762428023065,0.8227516310470919,0.6432796120799342,-2.3507237571976933,0.8227516310470919,0.9567203879200659,-2.4492762428023065,-0.22275163104709197,0.6432796120799342,-2.3507237571976933,-0.37724836895290803,0.9567203879200659,-2.4492762428023065,0.12394258031360376,0.01774119375657723,-3.0247051887335243,0.0,1.0,0.0,1.0,0.0,1.0,0.08808796003836805,-0.8850228536923568,0.40561378442340923
0.66,-0.3809233299890341,0.6394540742060218,-2.350481817187606,-0.21907667001096587,0.9605459257939782,-2.449518182812394,0.8190766700109658,0.6394540742060218,-2.350481817187606,0.8190766700109658,0.9605459257939782,-2.449518182812394,-0.21907667001096587,0.6394540742060218,-2.350481817187606,-0.3809233299890341,0.9605459257939782,-2.449518182812394,0.11937487189123869,0.01786370253727778,-3.024400054399684,0.0,1.0,0.0,1.0,1.0,1.0,0.08876455777698154,-0.8715381938706006,0.41835260751574765
0.67,-0.38481449324901407,0.6357869757779238,-2.350288745645551,-0.2151855067509859,0.9642130242220763,-2.449711254354449,0.8151855067509859,0.6357869757779238,-2.350288745645551,0.8151855067509859,0.9642130242220763,-2.449711254354449,-0.2151855067509859,0.6357869757779238,-2.350288745645551,-0.38481449324901407,0.9642130242220763,-2.449711254354449,0.11476138342538109,0.017599690352998066,-3.024326512952799,0.0,1.0,0.0,1.0,0.0,1.0,0.08948787145279591,-0.8565332473921806,0.43100669790177165
0.68,-0.38891801862449626,0.6322819357790543,-2.350144733109832,-0.21108198137550374,0.9677180642209458,-2.4498552668901676,0.8110819813755037,0.6322819357790543,-2.350144733109832,0.8110819813755037,0.9677180642209458,-2.4498552668901676,-0.21108198137550374,0.6322819357790543,-2.350144733109832,-0.38891801862449626,0.9677180642209458,-2.4498552668901676,0.10923485331972108,0.017155913397063766,-3.0242659356441663,0.0,1.0,0.0,1.0,1.0,1.0,0.09013539676503318,-0.8396694789285317,0.44421692103838917
0.6900000000000001,-0.39322985643135955,0.6289424132607235,-2.3500499217034343,-0.20677014356864043,0.9710575867392766,-2.4499500782965655,0.8067701435686404,0.6289424132607235,-2.3500499217034343,0.8067701435686404,0.9710575867392766,-2.4499500782965655,-0.20677014356864043,0.6289424132607235,-2.3500499217034343,-0.39322985643135955,0.9710575867392766,-2.4499500782965655,0.1039914354744921,0.016881311260666984,-3.024746995702708,0.0,1.0,0.0,1.0,1.0,1.0,0.09118505497472942,-0.8213203214054828,0.45707575913427634
0.7000000000000001,-0.3977457514062631,0.6257717039284717,-2.350004404993769,-0.20225424859373686,0.9742282960715284,-2.449995595006231,0.8022542485937368,0.6257717039284717,-2.350004404993769,0.8022542485937368,0.9742282960715284,-2.449995595006231,-0.20225424859373686,0.6257717039284717,-2.350004404993769,-0.3977457514062631,0.9742282960715284,-2.449995595006231,0.0979240126284776,0.01665310627854822,-3.0252888295833595,0.0,1.0,0.0,1.0,1.0,1.0,0.09239098954167435,-0.8011493932231051,0.47022592925976564
0.71,-0.4024612469060773,0.6227729368896054,-2.3500082279003336,-0.19753875309392263,0.9772270631103946,-2.4499917720996662,0.7975387530939226,0.6227729368896054,-2.3500082279003336,0.7975387530939226,0.9772270631103946,-2.4499917720996662,-0.19753875309392263,0.6227729368896054,-2.3500082279003336,-0.4024612469060773,0.9772270631103946,-2.4499917720996662,0.09053746654517258,0.01703234119344337,-3.0260434128036655,0.0,1.0,0.0,1.0,1.0,1.0,0.09370902739136545,-0.7792778359056933,0.48401365269719865
0.72,-0.40737168930605266,0.6199490715651464,-2.350061386650381,-0.1926283106939473,0.9800509284348536,-2.449938613349619,0.7926283106939473,0.6199490715651464,-2.350061386650381,0.7926283106939473,0.9800509284348536,-2.449938613349619,-0.1926283106939473,0.6199490715651464,-2.350061386650381,-0.40737168930605266,0.9800509284348536,-2.449938613349619,0.0810405717536144,0.016451022000998204,-3.0265751030006114,0.0,1.0,0.0,1.0,1.0,1.0,0.09493736208556529,-0.7559673571491183,0.49855230569486636
0.73,-0.4124722325923851,0.6173028947692406,-2.350163828782642,-0.1875277674076149,0.9826971052307595,-2.449836171217358,0.7875277674076149,0.6173028947692406,-2.350163828782642,0.7875277674076149,0.9826971052307595,-2.449836171217358,-0.1875277674076149,0.6173028947692406,-2.350163828782642,-0.4124722325923851,0.9826971052307595,-2.449836171217358,0.07389179264767584,0.01631269689356668,-3.027377719783973,0.0,1.0,0.0,1.0,1.0,1.0,0.09596032535208289,-0.7317799174288814,0.5131229288717851
0.74,-0.41775784314464715,0.6148370179589087,-2.350315453199101,-0.18224215685535286,0.9851629820410914,-2.4496845468008988,0.7822421568553528,0.6148370179589087,-2.350315453199101,0.7822421568553528,0.9851629820410914,-2.4496845468008988,-0.18224215685535286,0.6148370179589087,-2.350315453199101,-0.41775784314464715,0.9851629820410914,-2.4496845468008988,0.06657775802888503,0.015491419554428482,-3.028263244862618,0.0,1.0,0.0,1.0,1.0,1.0,0.0967984799752257,-0.7067225263392668,0.5276135561615498
0.75,-0.4232233047033631,0.6125538746568536,-2.3505161102647647,-0.1767766952966369,0.9874461253431465,-2.449483889735235,0.7767766952966368,0.6125538746568536,-2.3505161102647647,0.7767766952966368,0.9874461253431465,-2.449483889735235,-0.1767766952966369,0.6125538746568536,-2.3505161102647647,-0.4232233047033631,0.9874461253431465,-2.449483889735235,0.05892194239986674,0.014153000760764024,-3.0291909084031015,0.0,1.0,0.0,1.0,0.0,1.0,0.09745212086046492,-0.6807956690610727,0.541916147537079
0.76,-0.4288632235178278,0.6104557180498673,-2.3507656019553345,-0.1711367764821722,0.9895442819501328,-2.4492343980446654,0.7711367764821722,0.6104557180498673,-2.3507656019553345,0.7711367764821722,0.9895442819501328,-2.4492343980446654,-0.1711367764821722,0.6104557180498673,-2.3507656019553345,-0.4288632235178278,0.9895442819501328,-2.4492343980446654,0.051614662336688585,0.012771473353934162,-3.0302292743694403,0.0,1.0,0.0,1.0,0.0,1.0,0.0978931337193312,-0.6539391269597895,0.5552301643368045
0.77,-0.434672033669087,0.6085446187652072,-2.3510636820526334,-0.16532796633091296,0.9914553812347929,-2.4489363179473664,0.7653279663309129,0.6085446187652072,-2.3510636820526334,0.7653279663309129,0.9914553812347929,-2.4489363179473664,-0.16532796633091296,0.6085446187652072,-2.3510636820526334,-0.434672033669087,0.9914553812347929,-2.4489363179473664,0.04350604522479642,0.01086238090456087,-3.031293308871793,0.0,1.0,0.0,1.0,0.0,1.0,0.0981612538448688,-0.6261489281008225,0.5682993365762002
0.78,-0.44064400256282754,0.6068224628271376,-2.3514100563875933,-0.15935599743717246,0.9931775371728625,-2.4485899436124066,0.7593559974371724,0.6068224628271376,-2.3514100563875933,0.7593559974371724,0.9931775371728625,-2.4485899436124066,-0.15935599743717246,0.6068224628271376,-2.3514100563875933,-0.44064400256282754,0.9931775371728625,-2.4485899436124066,0.03508175813294287,0.008487391613413818,-3.032369092546725,0.0,1.0,0.0,1.0,0.0,1.0,0.09825657672385069,-0.5974778797533119,0.5811415761838692
0.79,-0.4467732365867559,0.6052909497956509,-2.3518043831305633,-0.1532267634132441,0.9947090502043492,-2.4481956168694365,0.7532267634132441,0.6052909497956509,-2.3518043831305633,0.7532267634132441,0.9947090502043492,-2.4481956168694365,-0.1532267634132441,0.6052909497956509,-2.3518043831305633,-0.4467732365867559,0.9947090502043492,-2.4481956168694365,0.02656418536677013,0.005236365895267168,-3.0333899618836533,0.0,1.0,0.0,1.0,0.0,1.0,0.09817129469424452,-0.5679225783361713,0.5934533908178671
0.8,-0.45305368692688164,0.6039515910892074,-2.352246273128656,-0.1469463130731183,0.9960484089107927,-2.4477537268713436,0.7469463130731183,0.6039515910892074,-2.352246273128656,0.7469463130731183,0.9960484089107927,-2.4477537268713436,-0.1469463130731183,0.6039515910892074,-2.352246273128656,-0.45305368692688164,0.9960484089107927,-2.4477537268713436,0.01808387901848277,0.00262388302908868,-3.0346006667024756,0.0,1.0,0.0,0.0,0.0,1.0,0.09786621501704763,-0.5374996983830126,0.6050401301481725
0.81,-0.4594791555369674,0.6028057084931475,-2.352735290289794,-0.14052084446303262,0.9971942915068526,-2.447264709710206,0.7405208444630326,0.6028057084931475,-2.352735290289794,0.7405208444630326,0.9971942915068526,-2.447264709710206,-0.14052084446303262,0.6028057084931475,-2.352735290289794,-0.4594791555369674,0.9971942915068526,-2.447264709710206,0.008938826879663476,-0.0015377056357257224,-3.035759298004782,0.0,1.0,0.0,1.0,0.0,1.0,0.09741467076538764,-0.5060507722709099,0.6163144006331449
0.8200000000000001,-0.46604330125525084,0.6018544328552496,-2.3532709520130783,-0.13395669874474916,0.9981455671447504,-2.4467290479869215,0.7339566987447491,0.6018544328552496,-2.3532709520130783,0.7339566987447491,0.9981455671447504,-2.4467290479869215,-0.13395669874474916,0.6018544328552496,-2.3532709520130783,-0.46604330125525084,0.9981455671447504,-2.4467290479869215,0.0002863239649644098,-0.004182434284642362,-3.0371601410980698,0.0,1.0,0.0,1.0,0.0,1.0,0.0967602994150526,-0.47385260736649604,0.6264920089472816
0.8300000000000001,-0.4727396460624072,0.6010987029697195,-2.353852729665059,-0.12726035393759277,0.9989012970302806,-2.446147270334941,0.7272603539375928,0.6010987029697195,-2.353852729665059,0.7272603539375928,0.9989012970302806,-2.446147270334941,-0.12726035393759277,0.6010987029697195,-2.353852729665059,-0.4727396460624072,0.9989012970302806,-2.446147270334941,-0.00873836794202062,-0.006774325534811083,-3.0387858899133215,0.0,1.0,0.0,0.0,0.0,1.0,0.09589349715657958,-0.44076766026814324,0.6360042311988565
0.84,-0.47956158147457106,0.6005392646507135,-2.354480049101433,-0.1204384185254289,0.9994607353492866,-2.445519950898567,0.7204384185254289,0.6005392646507135,-2.354480049101433,0.7204384185254289,0.9994607353492866,-2.445519950898567,-0.1204384185254289,0.6005392646507135,-2.354480049101433,-0.47956158147457106,0.9994607353492866,-2.445519950898567,-0.01821762697374746,-0.010665168998442005,-3.0403922304354656,0.0,1.0,0.0,1.0,0.0,1.0,0.09490406155664693,-0.4067597211549314,0.645027014581564
0.85,-0.4865023750651133,0.6001766699963108,-2.3551522912336535,-0.11349762493488671,0.9998233300036893,-2.4448477087663463,0.7134976249348867,0.6001766699963108,-2.3551522912336535,0.7134976249348867,0.9998233300036893,-2.4448477087663463,-0.11349762493488671,0.6001766699963108,-2.3551522912336535,-0.4865023750651133,0.9998233300036893,-2.4448477087663463,-0.02752408172769874,-0.013372651272827055,-3.042210390514642,0.0,1.0,0.0,0.0,0.0,1.0,0.09371923875776368,-0.3720014297367755,0.6530590618852607
0.86,-0.49355517710873176,0.6000112768436588,-2.355868792639897,-0.10644482289126822,0.9999887231563412,-2.444131207360103,0.7064448228912682,0.6000112768436588,-2.355868792639897,0.7064448228912682,0.9999887231563412,-2.444131207360103,-0.10644482289126822,0.6000112768436588,-2.355868792639897,-0.49355517710873176,0.9999887231563412,-2.444131207360103,-0.037322468897974644,-0.01697057707457344,-3.0439368403727247,0.0,1.0,0.0,1.0,0.0,1.0,0.09219688923892912,-0.336503601109284,0.6605694326825423
0.87,-0.5007130273413049,0.600043248415831,-2.3566288462197797,-0.09928697265869516,0.9999567515841691,-2.44337115378022,0.6992869726586951,0.600043248415831,-2.3566288462197797,0.6992869726586951,0.9999567515841691,-2.44337115378022,-0.09928697265869516,0.600043248415831,-2.3566288462197797,-0.5007130273413049,0.9999567515841691,-2.44337115378022,-0.04692654865719739,-0.02107804783507948,-3.0451949050080938,0.0,1.0,0.0,0.0,0.0,1.0,0.0899788027774896,-0.30090965805727476,0.6671528019263041
0.88,-0.5079688618288305,0.6002725531607456,-2.357431701892181,-0.09203113817116954,0.9997274468392545,-2.442568298107819,0.6920311381711695,0.6002725531607456,-2.357431701892181,0.6920311381711695,0.9997274468392545,-2.442568298107819,-0.09203113817116954,0.6002725531607456,-2.357431701892181,-0.5079688618288305,0.9997274468392545,-2.442568298107819,-0.05618060383520592,-0.02529048557025714,-3.046381218434644,0.0,1.0,0.0,0.0,0.0,1.0,0.0874050071230266,-0.26549622335621476,0.6727533313811985
0.89,-0.5153155199386772,0.6006989647823036,-2.3582765673354813,-0.08468448006132283,0.9993010352176965,-2.4417234326645185,0.6846844800613228,0.6006989647823036,-2.3582765673354813,0.6846844800613228,0.9993010352176965,-2.4417234326645185,-0.08468448006132283,0.6006989647823036,-2.3582765673354813,-0.5153155199386772,0.9993010352176965,-2.4417234326645185,-0.06523391375153421,-0.029494268866732426,-3.047775340503303,0.0,1.0,0.0,0.0,0.0,1.0,0.08457631768693338,-0.23029622593643884,0.6773839191544389
0.9,-0.5227457514062631,0.6013220624637159,-2.3591626087694904,-0.07725424859373688,0.9986779375362842,-2.4408373912305095,0.6772542485937368,0.6013220624637159,-2.3591626087694904,0.6772542485937368,0.9986779375362842,-2.4408373912305095,-0.07725424859373688,0.6013220624637159,-2.3591626087694904,-0.5227457514062631,0.9986779375362842,-2.4408373912305095,-0.07407972461745276,-0.03366687604759405,-3.049429917627854,0.0,1.0,0.0,0.0,0.0,1.0,0.081516253421018,-0.19531083566508226,0.6810908708210571
0.91,-0.5302522234901927,0.6021412312827985,-2.360088951778286,-0.06974777650980728,0.9978587687172016,-2.4399110482217137,0.6697477765098072,0.6021412312827985,-2.360088951778286,0.6697477765098072,0.9978587687172016,-2.4399110482217137,-0.06974777650980728,0.6021412312827985,-2.360088951778286,-0.5302522234901927,0.9978587687172016,-2.4399110482217137,-0.08274583042512751,-0.0377942754048614,-3.0513226626920993,0.0,1.0,1.0,0.0,0.0,1.0,0.07822408100005916,-0.16052865174097766,0.6839126505807225
0.92,-0.5378275282087863,0.6031556628188262,-2.3610546821731573,-0.062172471791213706,0.9968443371811739,-2.4389453178268425,0.6621724717912136,0.6031556628188262,-2.3610546821731573,0.6621724717912136,0.9968443371811739,-2.4389453178268425,-0.062172471791213706,0.6031556628188262,-2.3610546821731573,-0.5378275282087863,0.9968443371811739,-2.4389453178268425,-0.08499798923013663,-0.03781487836140646,-3.0549170201823084,0.0,1.0,1.0,0.0,0.0,1.0,0.07467134717426509,-0.12739372331173182,0.6876798021028361
0.93,-0.5454641896508644,0.604364355950347,-2.3620588468947985,-0.05453581034913558,0.9956356440496531,-2.4379411531052013,0.6545358103491355,0.604364355950347,-2.3620588468947985,0.6545358103491355,0.9956356440496531,-2.4379411531052013,-0.05453581034913558,0.604364355950347,-2.3620588468947985,-0.5454641896508644,0.9956356440496531,-2.4379411531052013,-0.08712556890509353,-0.037374067620481524,-3.0581800804087615,0.0,1.0,1.0,0.0,0.0,1.0,0.07066383749039962,-0.09452481490464222,0.6908532209954258
0.9400000000000001,-0.5531546713535689,0.6057661178431673,-2.3631004549538637,-0.04684532864643114,0.9942338821568328,-2.436899545046136,0.6468453286464311,0.6057661178431673,-2.3631004549538637,0.6468453286464311,0.9942338821568328,-2.436899545046136,-0.04684532864643114,0.6057661178431673,-2.3631004549538637,-0.5531546713535689,0.9942338821568328,-2.436899545046136,-0.09023639209560164,-0.03638145090040182,-3.0608442281611348,0.0,1.0,1.0,0.0,0.0,1.0,0.0661708491899636,-0.061643944665725744,0.6934732373889505
0.9500000000000001,-0.5608913837399422,0.6073595651275354,-2.3641784784089532,-0.039108616260057745,0.9926404348724647,-2.4358215215910466,0.6391086162600578,0.6073595651275354,-2.3641784784089532,0.6391086162600578,0.9926404348724647,-2.4358215215910466,-0.039108616260057745,0.6073595651275354,-2.3641784784089532,-0.5608913837399422,0.9926404348724647,-2.4358215215910466,-0.09331658903374276,-0.03533894682869222,-3.0628313447043087,0.0,1.0,1.0,0.0,0.0,1.0,0.06116569534537061,-0.028791160763564694,0.695355173919685
0.96,-0.5686666916089238,0.6091431252633612,-2.3652918533810685,-0.031333308391076134,0.9908568747366389,-2.4347081466189313,0.6313333083910762,0.6091431252633612,-2.3652918533810685,0.6313333083910762,0.9908568747366389,-2.4347081466189313,-0.031333308391076134,0.6091431252633612,-2.3652918533810685,-0.5686666916089238,0.9908568747366389,-2.4347081466189313,-0.09632819031217507,-0.034158636735659616,-3.0641559792278814,0.0,1.0,1.0,0.0,0.0,1.0,0.05565834585467427,0.004030917331079744,0.696542153464825
0.97,-0.5764729216703713,0.6111150380921224,-2.3664394811035314,-0.023527078329628588,0.9888849619078777,-2.4335605188964684,0.6235270783296286,0.6111150380921224,-2.3664394811035314,0.6235270783296286,0.9888849619078777,-2.4335605188964684,-0.023527078329628588,0.6111150380921224,-2.3664394811035314,-0.5764729216703713,0.9888849619078777,-2.4335605188964684,-0.09913359465258983,-0.03272888179923378,-3.065106206903658,0.0,1.0,1.0,0.0,0.0,1.0,0.04974632241346559,0.036772747468432954,0.6970556254795945
0.98,-0.5843023701176716,0.6132733575739289,-2.3676202290063344,-0.015697629882328396,0.9867266424260712,-2.4323797709936654,0.6156976298823283,0.6132733575739289,-2.3676202290063344,0.6156976298823283,0.9867266424260712,-2.4323797709936654,-0.015697629882328396,0.6132733575739289,-2.3676202290063344,-0.5843023701176716,0.9867266424260712,-2.4323797709936654,-0.10156853634215197,-0.03095952928565373,-3.0661037068551855,0.0,1.0,1.0,0.0,0.0,1.0,0.04356894496501652,0.06935992626828597,0.6968901048172773
0.99,-0.592147310230468,0.615615953708029,-2.3688329318338512,-0.007852689769532059,0.9843840462919711,-2.4311670681661486,0.607852689769532,0.615615953708029,-2.3688329318338512,0.607852689769532,0.9843840462919711,-2.4311670681661486,-0.007852689769532059,0.615615953708029,-2.3688329318338512,-0.592147310230468,0.9843840462919711,-2.4311670681661486,-0.1035976288152422,-0.028836774465894704,-3.0672721739360975,0.0,1.0,1.0,0.0,0.0,1.0,0.037168435688427016,0.10177365311278078,0.696042465519578
1.0,-0.6,0.6181405146348637,-2.370076392794802,-3.061616997868383e-17,0.9818594853651363,-2.4299236072051977,0.6,0.6181405146348637,-2.370076392794802,0.6,0.9818594853651363,-2.4299236072051977,-3.061616997868383e-17,0.6181405146348637,-2.370076392794802,-0.6,0.9818594853651363,-2.4299236072051977,-0.10523969174833196,-0.026374083953316266,-3.06862005486376,0.0,1.0,1.0,0.0,0.0,1.0,0.030548299354659355,0.13401878756246857,0.6945121574339541
1.01,-0.607852689769532,0.620844548917592,-2.371349384743344,0.007852689769531998,0.9791554510824081,-2.428650615256656,0.592147310230468,0.620844548917592,-2.371349384743344,0.592147310230468,0.9791554510824081,-2.428650615256656,0.007852689769531998,0.620844548917592,-2.371349384743344,-0.607852689769532,0.9791554510824081,-2.428650615256656,-0.1065258105983628,-0.023589675857645237,-3.0701274921288038,0.0,1.0,1.0,0.0,0.0,1.0,0.02370268350852328,0.16610599538532264,0.6922991259621987
1.02,-0.6156976298823283,0.6237253880008389,-2.3726506513901127,0.015697629882328337,0.9762746119991612,-2.427349348609887,0.5843023701176716,0.6237253880008389,-2.3726506513901127,0.5843023701176716,0.9762746119991612,-2.427349348609887,0.015697629882328337,0.6237253880008389,-2.3726506513901127,-0.6156976298823283,0.9762746119991612,-2.427349348609887,-0.10748410032372993,-0.020499464856814954,-3.0717779175362288,0.0,1.0,1.0,0.0,0.0,1.0,0.016627048721668765,0.1980448510111978,0.6894025159244398
1.03,-0.6235270783296285,0.6267801888442371,-2.3739789085420333,0.023527078329628526,0.973219811155763,-2.4260210914579665,0.5764729216703715,0.6267801888442371,-2.3739789085420333,0.5764729216703715,0.973219811155763,-2.4260210914579665,0.023527078329628526,0.6267801888442371,-2.3739789085420333,-0.6235270783296285,0.973219811155763,-2.4260210914579665,-0.10813621460903224,-0.017115650815031993,-3.0735633573476107,0.0,1.0,1.0,0.0,0.0,1.0,0.009320002959686829,0.2298426572312275,0.6858210460833287
1.04,-0.631333308391076,0.630005936728165,-2.375332845369658,0.03133330839107607,0.9699940632718351,-2.4246671546303418,0.5686666916089239,0.630005936728165,-2.375332845369658,0.5686666916089239,0.9699940632718351,-2.4246671546303418,0.03133330839107607,0.630005936728165,-2.375332845369658,-0.631333308391076,0.9699940632718351,-2.4246671546303418,-0.10849908808348835,-0.013447259407126771,-3.075481734823209,0.0,1.0,1.0,1.0,0.0,1.0,0.0017823948412848763,0.2615050356731773,0.6815532547645428
1.05,-0.6391086162600577,0.63339944822891,-2.3767111257008016,0.03910861626005768,0.96660055177109,-2.4232888742991983,0.5608913837399423,0.63339944822891,-2.3767111257008016,0.5608913837399423,0.96660055177109,-2.4232888742991983,0.03910861626005768,0.63339944822891,-2.3767111257008016,-0.6391086162600577,0.96660055177109,-2.4232888742991983,-0.10912264050567065,-0.010446625057014864,-3.0771632962042244,0.0,1.0,1.0,1.0,0.0,1.0,-0.006123949644234148,0.2923878907466068,0.6772351317696012
1.06,-0.6468453286464312,0.636957374360325,-2.378112389339178,0.04684532864643119,0.9630426256396751,-2.421887610660822,0.5531546713535688,0.636957374360325,-2.378112389339178,0.5531546713535688,0.9630426256396751,-2.421887610660822,0.04684532864643119,0.636957374360325,-2.378112389339178,-0.6468453286464312,0.9630426256396751,-2.421887610660822,-0.10964134115475616,-0.007634861209220308,-3.0790623290914003,0.0,1.0,1.0,1.0,0.0,1.0,-0.0141980988258967,0.32235511337972583,0.6728661330961463
1.07,-0.6545358103491357,0.6406762038788714,-2.379535253406754,0.05453581034913563,0.9593237961211287,-2.420464746593246,0.5454641896508643,0.6406762038788714,-2.379535253406754,0.5454641896508643,0.9593237961211287,-2.420464746593246,0.05453581034913563,0.6406762038788714,-2.379535253406754,-0.6545358103491357,0.9593237961211287,-2.420464746593246,-0.11085331342286296,-0.006133819383293177,-3.0807493102383647,0.0,0.0,1.0,1.0,0.0,1.0,-0.021927434286740183,0.3507960281478977,0.6705702135002861
1.08,-0.6621724717912137,0.6445522667487943,-2.3809783137084786,0.062172471791213754,0.9554477332512058,-2.4190216862915213,0.5378275282087862,0.6445522667487943,-2.3809783137084786,0.5378275282087862,0.9554477332512058,-2.4190216862915213,0.062172471791213754,0.6445522667487943,-2.3809783137084786,-0.6621724717912137,0.9554477332512058,-2.4190216862915213,-0.11058504347642294,-0.005261801165074233,-3.081276674906969,1.0,1.0,1.0,1.0,0.0,1.0,-0.029590791837207753,0.3777802780938663,0.6702331886573253
1.09,-0.6697477765098073,0.648581737764004,-2.3824401461180567,0.06974777650980732,0.9514182622359961,-2.417559853881943,0.5302522234901926,0.648581737764004,-2.3824401461180567,0.5302522234901926,0.9514182622359961,-2.417559853881943,0.06974777650980732,0.648581737764004,-2.3824401461180567,-0.6697477765098073,0.9514182622359961,-2.417559853881943,-0.11046869021668838,-0.0040598345924108626,-3.081316641780268,1.0,0.0,1.0,1.0,0.0,1.0,-0.036636958272783904,0.4027206672145727,0.6706801200085571
1.1,-0.677254248593737,0.6527606403230921,-2.3839193079833896,0.07725424859373693,0.947239359676908,-2.4160806920166102,0.522745751406263,0.6527606403230921,-2.3839193079833896,0.522745751406263,0.947239359676908,-2.4160806920166102,0.07725424859373693,0.6527606403230921,-2.3839193079833896,-0.677254248593737,0.947239359676908,-2.4160806920166102,-0.10894316373958793,-0.0033190871598217327,-3.081032138768783,1.0,1.0,1.0,1.0,0.0,1.0,-0.04344491047195413,0.4260448301056669,0.6718926250160381
1.11,-0.6846844800613229,0.6570848503537581,-2.385414339550297,0.08468448006132287,0.942915149646242,-2.4145856604497027,0.5153155199386771,0.6570848503537581,-2.385414339550297,0.5153155199386771,0.942915149646242,-2.4145856604497027,0.08468448006132287,0.6570848503537581,-2.385414339550297,-0.6846844800613229,0.942915149646242,-2.4145856604497027,-0.10790592096331665,-0.0025833345527015274,-3.0807326280671226,1.0,1.0,1.0,1.0,0.0,1.0,-0.04995280890895476,0.4478631698751685,0.6725087311760095
1.12,-0.6920311381711696,0.6615501003827698,-2.386923765403121,0.09203113817116958,0.9384498996172302,-2.413076234596879,0.5079688618288304,0.6615501003827698,-2.386923765403121,0.5079688618288304,0.9384498996172302,-2.413076234596879,0.09203113817116958,0.6615501003827698,-2.386923765403121,-0.6920311381711696,0.9384498996172302,-2.413076234596879,-0.10595457495940955,-0.0018547749802809588,-3.0803986568065076,1.0,1.0,1.0,1.0,0.0,1.0,-0.056224121276474026,0.4682170398127812,0.6733440196094218
1.1300000000000001,-0.6992869726586952,0.6661519837474448,-2.3884460959207785,0.0992869726586952,0.9338480162525553,-2.4115539040792213,0.5007130273413047,0.6661519837474448,-2.3884460959207785,0.5007130273413047,0.9338480162525553,-2.4115539040792213,0.0992869726586952,0.6661519837474448,-2.3884460959207785,-0.6992869726586952,0.9338480162525553,-2.4115539040792213,-0.10385194542067082,-0.001137623596220865,-3.080267379791642,1.0,1.0,1.0,1.0,0.0,1.0,-0.0623054094377068,0.4872134075251869,0.6741575717570092
1.1400000000000001,-0.7064448228912681,0.6708859589444942,-2.3899798287468426,0.10644482289126816,0.9291140410555059,-2.4100201712531573,0.4935551771087318,0.6708859589444942,-2.3899798287468426,0.4935551771087318,0.9291140410555059,-2.4100201712531573,0.10644482289126816,0.6708859589444942,-2.3899798287468426,-0.7064448228912681,0.9291140410555059,-2.4100201712531573,-0.10158390093538223,-0.0004510297285810761,-3.0803920262982305,1.0,1.0,1.0,1.0,0.0,1.0,-0.0682056636979971,0.5048443232076659,0.6748591226653562
1.1500000000000001,-0.7134976249348868,0.6757473541119384,-2.391523450272184,0.11349762493488677,0.9242526458880617,-2.408476549727816,0.4865023750651132,0.6757473541119384,-2.391523450272184,0.4865023750651132,0.9242526458880617,-2.408476549727816,0.11349762493488677,0.6757473541119384,-2.391523450272184,-0.7134976249348868,0.9242526458880617,-2.408476549727816,-0.09915048973445761,0.00019275470105273616,-3.0807760391050274,1.0,1.0,1.0,1.0,0.0,1.0,-0.0739267695627004,0.5210964342420824,0.6754302109766127
1.16,-0.7204384185254287,0.6807313716396701,-2.3930754371287195,0.12043841852542875,0.91926862836033,-2.4069245628712803,0.47956158147457123,0.6807313716396701,-2.3930754371287195,0.47956158147457123,0.91926862836033,-2.4069245628712803,0.12043841852542875,0.6807313716396701,-2.3930754371287195,-0.7204384185254287,0.91926862836033,-2.4069245628712803,-0.09659049310240518,0.0007868382587504726,-3.0812950776321006,1.0,1.0,1.0,1.0,0.0,1.0,-0.07950851589310146,0.5359831371979048,0.675859808587116
1.17,-0.7272603539375927,0.6858330929041176,-2.3946342576927973,0.12726035393759272,0.9141669070958824,-2.4053657423072026,0.47273964606240726,0.6858330929041176,-2.3946342576927973,0.47273964606240726,0.9141669070958824,-2.4053657423072026,0.12726035393759272,0.6858330929041176,-2.3946342576927973,-0.7272603539375927,0.9141669070958824,-2.4053657423072026,-0.09395700071503102,0.001341660867147882,-3.0816234336590873,1.0,1.0,1.0,1.0,0.0,1.0,-0.08504845476429417,0.5495551020844346,0.6761284482035499
1.18,-0.7339566987447491,0.6910474831223312,-2.396198373596718,0.1339566987447491,0.9089525168776689,-2.4038016264032818,0.46604330125525084,0.6910474831223312,-2.396198373596718,0.46604330125525084,0.9089525168776689,-2.4038016264032818,0.1339566987447491,0.6910474831223312,-2.396198373596718,-0.7339566987447491,0.9089525168776689,-2.4038016264032818,-0.09126173660433044,0.001870605899752866,-3.0816572942424174,1.0,1.0,1.0,1.0,0.0,1.0,-0.09057871660250466,0.561822849950419,0.6762289185479309
1.19,-0.7405208444630326,0.696369396320706,-2.3977662412469227,0.14052084446303256,0.903630603679294,-2.402233758753077,0.4594791555369674,0.696369396320706,-2.3977662412469227,0.4594791555369674,0.903630603679294,-2.402233758753077,0.14052084446303256,0.696369396320706,-2.3977662412469227,-0.7405208444630326,0.903630603679294,-2.402233758753077,-0.08851395973957131,0.0023732768905026383,-3.081384667559618,1.0,1.0,1.0,1.0,0.0,1.0,-0.09610608832596389,0.5727813230447211,0.6761657250742457
