time,RPC,RPF,RPT,RMC,RMF,RMT,RAC,RAF,RAT,LPC,LPF,LPT,LMC,LMF,LMT,LAC,LAF,LAT,imu_roll,imu_pitch,imu_yaw,joint_sensor1,joint_sensor2,joint_sensor3,joint_sensor4,joint_sensor5,joint_sensor6,joint_sensor7,joint_sensor8,joint_sensor9,joint_sensor10,joint_sensor11,joint_sensor12,joint_sensor13,joint_sensor14,joint_sensor15,joint_sensor16,joint_sensor17,joint_sensor18,foot_contact1,foot_contact2,foot_contact3,foot_contact4,foot_contact5,foot_contact6,com_x,com_y,com_z
0.01,-0.592147310230468,0.9791554510824081,-2.428650615256656,-0.007852689769532073,0.620844548917592,-2.371349384743344,0.607852689769532,0.9791554510824081,-2.428650615256656,0.607852689769532,0.620844548917592,-2.371349384743344,-0.007852689769532073,0.9791554510824081,-2.428650615256656,-0.592147310230468,0.620844548917592,-2.371349384743344,,,,,,,,,,,,,,,,,,,,,,,,,,,,,,
0.02,-0.5843023701176716,0.9762746119991611,-2.4273493486098867,-0.015697629882328343,0.623725388000839,-2.372650651390113,0.6156976298823283,0.9762746119991611,-2.4273493486098867,0.6156976298823283,0.623725388000839,-2.372650651390113,-0.015697629882328343,0.9762746119991611,-2.4273493486098867,-0.5843023701176716,0.623725388000839,-2.372650651390113,,,,,,,,,,,,,,,,,,,,,,,,,,,,,,
0.03,-0.5764729216703715,0.9732198111557628,-2.4260210914579665,-0.023527078329628578,0.6267801888442373,-2.3739789085420333,0.6235270783296285,0.9732198111557628,-2.4260210914579665,0.6235270783296285,0.6267801888442373,-2.3739789085420333,-0.023527078329628578,0.9732198111557628,-2.4260210914579665,-0.5764729216703715,0.6267801888442373,-2.3739789085420333,,,,,,,,,,,,,,,,,,,,,,,,,,,,,,
0.04,-0.5686666916089239,0.9699940632718351,-2.4246671546303418,-0.031333308391076065,0.630005936728165,-2.375332845369658,0.631333308391076,0.9699940632718351,-2.4246671546303418,0.631333308391076,0.630005936728165,-2.375332845369658,-0.031333308391076065,0.9699940632718351,-2.4246671546303418,-0.5686666916089239,0.630005936728165,-2.375332845369658,,,,,,,,,,,,,,,,,,,,,,,,,,,,,,
0.05,-0.5608913837399423,0.9666005517710899,-2.4232888742991983,-0.03910861626005772,0.6333994482289101,-2.3767111257008016,0.6391086162600577,0.9666005517710899,-2.4232888742991983,0.6391086162600577,0.6333994482289101,-2.3767111257008016,-0.03910861626005772,0.9666005517710899,-2.4232888742991983,-0.5608913837399423,0.6333994482289101,-2.3767111257008016,,,,,,,,,,,,,,,,,,,,,,,,,,,,,,
0.06,-0.5531546713535689,0.9630426256396752,-2.421887610660822,-0.04684532864643115,0.6369573743603248,-2.378112389339178,0.6468453286464311,0.9630426256396752,-2.421887610660822,0.6468453286464311,0.6369573743603248,-2.378112389339178,-0.04684532864643115,0.9630426256396752,-2.421887610660822,-0.5531546713535689,0.6369573743603248,-2.378112389339178,,,,,,,,,,,,,,,,,,,,,,,,,,,,,,
0.07,-0.5454641896508643,0.9593237961211287,-2.420464746593246,-0.05453581034913564,0.6406762038788714,-2.379535253406754,0.6545358103491357,0.9593237961211287,-2.420464746593246,0.6545358103491357,0.6406762038788714,-2.379535253406754,-0.05453581034913564,0.9593237961211287,-2.420464746593246,-0.5454641896508643,0.6406762038788714,-2.379535253406754,,,,,,,,,,,,,,,,,,,,,,,,,,,,,,
0.08,-0.5378275282087863,0.9554477332512058,-2.4190216862915213,-0.0621724717912137,0.6445522667487943,-2.3809783137084786,0.6621724717912136,0.9554477332512058,-2.4190216862915213,0.6621724717912136,0.6445522667487943,-2.3809783137084786,-0.0621724717912137,0.9554477332512058,-2.4190216862915213,-0.5378275282087863,0.6445522667487943,-2.3809783137084786,,,,,,,,,,,,,,,,,,,,,,,,,,,,,,
0.09,-0.5302522234901926,0.9514182622359961,-2.417559853881943,-0.06974777650980732,0.648581737764004,-2.3824401461180567,0.6697477765098073,0.9514182622359961,-2.417559853881943,0.6697477765098073,0.648581737764004,-2.3824401461180567,-0.06974777650980732,0.9514182622359961,-2.417559853881943,-0.5302522234901926,0.648581737764004,-2.3824401461180567,,,,,,,,,,,,,,,,,,,,,,,,,,,,,,
0.1,-0.5227457514062631,0.947239359676908,-2.4160806920166102,-0.07725424859373685,0.6527606403230921,-2.3839193079833896,0.6772542485937368,0.947239359676908,-2.4160806920166102,0.6772542485937368,0.6527606403230921,-2.3839193079833896,-0.07725424859373685,0.947239359676908,-2.4160806920166102,-0.5227457514062631,0.6527606403230921,-2.3839193079833896,,,,,,,,,,,,,,,,,,,,,,,,,,,,,,
0.11,-0.5153155199386772,0.942915149646242,-2.4145856604497027,-0.08468448006132284,0.6570848503537581,-2.385414339550297,0.6846844800613228,0.942915149646242,-2.4145856604497027,0.6846844800613228,0.6570848503537581,-2.385414339550297,-0.08468448006132284,0.942915149646242,-2.4145856604497027,-0.5153155199386772,0.6570848503537581,-2.385414339550297,,,,,,,,,,,,,,,,,,,,,,,,,,,,,,
0.12,-0.5079688618288305,0.9384498996172302,-2.413076234596879,-0.09203113817116948,0.6615501003827698,-2.386923765403121,0.6920311381711695,0.9384498996172302,-2.413076234596879,0.6920311381711695,0.6615501003827698,-2.386923765403121,-0.09203113817116948,0.9384498996172302,-2.413076234596879,-0.5079688618288305,0.6615501003827698,-2.386923765403121,,,,,,,,,,,,,,,,,,,,,,,,,,,,,,
0.13,-0.5007130273413049,0.9338480162525553,-2.4115539040792213,-0.09928697265869516,0.6661519837474448,-2.3884460959207785,0.6992869726586951,0.9338480162525553,-2.4115539040792213,0.6992869726586951,0.6661519837474448,-2.3884460959207785,-0.09928697265869516,0.9338480162525553,-2.4115539040792213,-0.5007130273413049,0.6661519837474448,-2.3884460959207785,,,,,,,,,,,,,,,,,,,,,,,,,,,,,,
0.14,-0.4935551771087318,0.9291140410555059,-2.4100201712531573,-0.10644482289126818,0.6708859589444942,-2.3899798287468426,0.7064448228912682,0.9291140410555059,-2.4100201712531573,0.7064448228912682,0.6708859589444942,-2.3899798287468426,-0.10644482289126818,0.9291140410555059,-2.4100201712531573,-0.4935551771087318,0.6708859589444942,-2.3899798287468426,,,,,,,,,,,,,,,,,,,,,,,,,,,,,,
0.15,-0.4865023750651133,0.9242526458880618,-2.4084765497278164,-0.11349762493488669,0.6757473541119383,-2.3915234502721834,0.7134976249348867,0.9242526458880618,-2.4084765497278164,0.7134976249348867,0.6757473541119383,-2.3915234502721834,-0.11349762493488669,0.9242526458880618,-2.4084765497278164,-0.4865023750651133,0.6757473541119383,-2.3915234502721834,,,,,,,,,,,,,,,,,,,,,,,,,,,,,,
0.16,-0.4795615814745712,0.91926862836033,-2.4069245628712803,-0.12043841852542883,0.6807313716396701,-2.3930754371287195,0.7204384185254288,0.91926862836033,-2.4069245628712803,0.7204384185254288,0.6807313716396701,-2.3930754371287195,-0.12043841852542883,0.91926862836033,-2.4069245628712803,-0.4795615814745712,0.6807313716396701,-2.3930754371287195,,,,,,,,,,,,,,,,,,,,,,,,,,,,,,
0.17,-0.47273964606240715,0.9141669070958823,-2.4053657423072026,-0.12726035393759283,0.6858330929041178,-2.3946342576927973,0.7272603539375928,0.9141669070958823,-2.4053657423072026,0.7272603539375928,0.6858330929041178,-2.3946342576927973,-0.12726035393759283,0.9141669070958823,-2.4053657423072026,-0.47273964606240715,0.6858330929041178,-2.3946342576927973,,,,,,,,,,,,,,,,,,,,,,,,,,,,,,
0.18,-0.46604330125525084,0.908952516877669,-2.4038016264032818,-0.13395669874474916,0.6910474831223311,-2.396198373596718,0.7339566987447491,0.908952516877669,-2.4038016264032818,0.7339566987447491,0.6910474831223311,-2.396198373596718,-0.13395669874474916,0.908952516877669,-2.4038016264032818,-0.46604330125525084,0.6910474831223311,-2.396198373596718,,,,,,,,,,,,,,,,,,,,,,,,,,,,,,
0.19,-0.45947915553696733,0.903630603679294,-2.402233758753077,-0.14052084446303265,0.696369396320706,-2.3977662412469227,0.7405208444630327,0.903630603679294,-2.402233758753077,0.7405208444630327,0.696369396320706,-2.3977662412469227,-0.14052084446303265,0.903630603679294,-2.402233758753077,-0.45947915553696733,0.696369396320706,-2.3977662412469227,,,,,,,,,,,,,,,,,,,,,,,,,,,,,,
0.2,-0.4530536869268817,0.898206419586562,-2.400663686652668,-0.14694631307311828,0.7017935804134381,-2.399336313347332,0.7469463130731182,0.898206419586562,-2.400663686652668,0.7469463130731182,0.7017935804134381,-2.399336313347332,-0.14694631307311828,0.898206419586562,-2.400663686652668,-0.4530536869268817,0.7017935804134381,-2.399336313347332,,,,,,,,,,,,,,,,,,,,,,,,,,,,,,
0.21,-0.4467732365867559,0.8926853176143029,-2.39909295957366,-0.1532267634132441,0.7073146823856972,-2.4009070404263397,0.7532267634132441,0.8926853176143029,-2.39909295957366,0.7532267634132441,0.7073146823856972,-2.4009070404263397,-0.1532267634132441,0.8926853176143029,-2.39909295957366,-0.4467732365867559,0.7073146823856972,-2.4009070404263397,,,,,,,,,,,,,,,,,,,,,,,,,,,,,,
0.22,-0.44064400256282754,0.8870727464235924,-2.397523127634045,-0.1593559974371724,0.7129272535764077,-2.4024768723659546,0.7593559974371724,0.8870727464235924,-2.397523127634045,0.7593559974371724,0.7129272535764077,-2.4024768723659546,-0.1593559974371724,0.8870727464235924,-2.397523127634045,-0.44064400256282754,0.7129272535764077,-2.4024768723659546,,,,,,,,,,,,,,,,,,,,,,,,,,,,,,
0.23,-0.434672033669087,0.8813742449445818,-2.395955740068419,-0.16532796633091296,0.7186257550554183,-2.404044259931581,0.7653279663309129,0.8813742449445818,-2.395955740068419,0.7653279663309129,0.7186257550554183,-2.404044259931581,-0.16532796633091296,0.8813742449445818,-2.395955740068419,-0.434672033669087,0.7186257550554183,-2.404044259931581,,,,,,,,,,,,,,,,,,,,,,,,,,,,,,
0.24,-0.4288632235178278,0.8755954369102427,-2.3943923436990753,-0.17113677648217215,0.7244045630897574,-2.4056076563009245,0.7711367764821722,0.8755954369102427,-2.3943923436990753,0.7711367764821722,0.7244045630897574,-2.4056076563009245,-0.17113677648217215,0.8755954369102427,-2.3943923436990753,-0.4288632235178278,0.7244045630897574,-2.4056076563009245,,,,,,,,,,,,,,,,,,,,,,,,,,,,,,
0.25,-0.4232233047033631,0.8697420253064209,-2.392834481409481,-0.1767766952966369,0.7302579746935792,-2.407165518590519,0.7767766952966368,0.8697420253064209,-2.392834481409481,0.7767766952966368,0.7302579746935792,-2.407165518590519,-0.1767766952966369,0.8697420253064209,-2.392834481409481,-0.4232233047033631,0.7302579746935792,-2.407165518590519,,,,,,,,,,,,,,,,,,,,,,,,,,,,,,
0.26,-0.4177578431446471,0.8638197867436783,-2.391283690621631,-0.1822421568553529,0.7361802132563218,-2.408716309378369,0.7822421568553528,0.8638197867436783,-2.391283690621631,0.7822421568553528,0.7361802132563218,-2.408716309378369,-0.1822421568553529,0.8638197867436783,-2.391283690621631,-0.4177578431446471,0.7361802132563218,-2.408716309378369,,,,,,,,,,,,,,,,,,,,,,,,,,,,,,
0.27,-0.4124722325923851,0.8578345657564759,-2.3897415017788055,-0.1875277674076149,0.7421654342435242,-2.4102584982211943,0.7875277674076149,0.8578345657564759,-2.3897415017788055,0.7875277674076149,0.7421654342435242,-2.4102584982211943,-0.1875277674076149,0.8578345657564759,-2.3897415017788055,-0.4124722325923851,0.7421654342435242,-2.4102584982211943,,,,,,,,,,,,,,,,,,,,,,,,,,,,,,
0.28,-0.40737168930605266,0.8517922690353237,-2.3882094368352003,-0.1926283106939473,0.7482077309646764,-2.4117905631647996,0.7926283106939473,0.8517922690353237,-2.3882094368352003,0.7926283106939473,0.7482077309646764,-2.4117905631647996,-0.1926283106939473,0.8517922690353237,-2.3882094368352003,-0.40737168930605266,0.7482077309646764,-2.4117905631647996,,,,,,,,,,,,,,,,,,,,,,,,,,,,,,
0.29,-0.40246124690607743,0.84569885959759,-2.386689007753947,-0.19753875309392258,0.7543011404024101,-2.413310992246053,0.7975387530939225,0.84569885959759,-2.386689007753947,0.7975387530939225,0.7543011404024101,-2.413310992246053,-0.19753875309392258,0.84569885959759,-2.386689007753947,-0.40246124690607743,0.7543011404024101,-2.413310992246053,,,,,,,,,,,,,,,,,,,,,,,,,,,,,,
0.3,-0.3977457514062631,0.8395603509027237,-2.385181715014985,-0.20225424859373686,0.7604396490972763,-2.4148182849850146,0.8022542485937368,0.8395603509027237,-2.385181715014985,0.8022542485937368,0.7604396490972763,-2.4148182849850146,-0.20225424859373686,0.8395603509027237,-2.385181715014985,-0.3977457514062631,0.7604396490972763,-2.4148182849850146,,,,,,,,,,,,,,,,,,,,,,,,,,,,,,
0.31,-0.39322985643135955,0.8333828009176955,-2.38368904613427,-0.20677014356864046,0.7666171990823046,-2.4163109538657297,0.8067701435686404,0.8333828009176955,-2.38368904613427,0.8067701435686404,0.7666171990823046,-2.4163109538657297,-0.20677014356864046,0.8333828009176955,-2.38368904613427,-0.39322985643135955,0.7666171990823046,-2.4163109538657297,,,,,,,,,,,,,,,,,,,,,,,,,,,,,,
0.32,-0.3889180186244962,0.8271723061385158,-2.382212474195775,-0.21108198137550377,0.7728276938614843,-2.4177875258042247,0.8110819813755037,0.8271723061385158,-2.382212474195775,0.8110819813755037,0.7728276938614843,-2.4177875258042247,-0.21108198137550377,0.8271723061385158,-2.382212474195775,-0.3889180186244962,0.7728276938614843,-2.4177875258042247,,,,,,,,,,,,,,,,,,,,,,,,,,,,,,
0.33,-0.38481449324901407,0.8209349955737297,-2.380753456397735,-0.2151855067509859,0.7790650044262704,-2.4192465436022648,0.8151855067509859,0.8209349955737297,-2.380753456397735,0.8151855067509859,0.7790650044262704,-2.4192465436022648,-0.2151855067509859,0.8209349955737297,-2.380753456397735,-0.38481449324901407,0.7790650044262704,-2.4192465436022648,,,,,,,,,,,,,,,,,,,,,,,,,,,,,,
0.34,-0.38092332998903405,0.814677024695825,-2.379313432614567,-0.21907667001096592,0.785322975304175,-2.4206865673854328,0.819076670010966,0.814677024695825,-2.379313432614567,0.819076670010966,0.785322975304175,-2.4206865673854328,-0.21907667001096592,0.814677024695825,-2.379313432614567,-0.38092332998903405,0.785322975304175,-2.4206865673854328,,,,,,,,,,,,,,,,,,,,,,,,,,,,,,
0.35000000000000003,-0.37724836895290803,0.8084045693665243,-2.3778938239758887,-0.22275163104709195,0.7915954306334758,-2.422106176024111,0.8227516310470919,0.8084045693665243,-2.3778938239758887,0.8227516310470919,0.7915954306334758,-2.422106176024111,-0.22275163104709195,0.8084045693665243,-2.3778938239758887,-0.37724836895290803,0.7915954306334758,-2.422106176024111,,,,,,,,,,,,,,,,,,,,,,,,,,,,,,
0.36,-0.3737932368834951,0.8021238197419547,-2.3764960314640353,-0.2262067631165049,0.7978761802580454,-2.4235039685359645,0.8262067631165049,0.8021238197419547,-2.3764960314640353,0.8262067631165049,0.7978761802580454,-2.4235039685359645,-0.2262067631165049,0.8021238197419547,-2.3764960314640353,-0.3737932368834951,0.7978761802580454,-2.4235039685359645,,,,,,,,,,,,,,,,,,,,,,,,,,,,,,
0.37,-0.3705613435790047,0.7958409741637116,-2.3751214345314584,-0.22943865642099529,0.8041590258362885,-2.4248785654685414,0.8294386564209952,0.7958409741637116,-2.3751214345314584,0.8294386564209952,0.8041590258362885,-2.4248785654685414,-0.22943865642099529,0.7958409741637116,-2.3751214345314584,-0.3705613435790047,0.8041590258362885,-2.4248785654685414,,,,,,,,,,,,,,,,,,,,,,,,,,,,,,
0.38,-0.36755587852793714,0.7895622330418437,-2.3737713897393737,-0.23244412147206284,0.8104377669581564,-2.426228610260626,0.8324441214720628,0.7895622330418437,-2.3737713897393737,0.8324441214720628,0.8104377669581564,-2.426228610260626,-0.23244412147206284,0.7895622330418437,-2.3737713897393737,-0.36755587852793714,0.8104377669581564,-2.426228610260626,,,,,,,,,,,,,,,,,,,,,,,,,,,,,,
0.39,-0.3647798077614436,0.7832937927357966,-2.3724472294189973,-0.23522019223855636,0.8167062072642035,-2.4275527705810025,0.8352201922385564,0.7832937927357966,-2.3724472294189973,0.8352201922385564,0.8167062072642035,-2.4275527705810025,-0.23522019223855636,0.7832937927357966,-2.3724472294189973,-0.3647798077614436,0.8167062072642035,-2.4275527705810025,,,,,,,,,,,,,,,,,,,,,,,,,,,,,,
0.4,-0.36223587092621157,0.7770418394393545,-2.371150260356698,-0.23776412907378838,0.8229581605606456,-2.4288497396433018,0.8377641290737884,0.7770418394393545,-2.371150260356698,0.8377641290737884,0.8229581605606456,-2.4288497396433018,-0.23776412907378838,0.7770418394393545,-2.371150260356698,-0.36223587092621157,0.8229581605606456,-2.4288497396433018,,,,,,,,,,,,,,,,,,,,,,,,,,,,,,
0.41000000000000003,-0.3599265785807642,0.7708125430756133,-2.3698817625043556,-0.24007342141923577,0.8291874569243868,-2.4301182374956443,0.8400734214192358,0.7708125430756133,-2.3698817625043556,0.8400734214192358,0.8291874569243868,-2.4301182374956443,-0.24007342141923577,0.7708125430756133,-2.3698817625043556,-0.3599265785807642,0.8291874569243868,-2.4301182374956443,,,,,,,,,,,,,,,,,,,,,,,,,,,,,,
0.42,-0.3578542097178422,0.7646120512080122,-2.3686429877162025,-0.24214579028215777,0.8353879487919879,-2.4313570122837973,0.8421457902821577,0.7646120512080122,-2.3686429877162025,0.8421457902821577,0.8353879487919879,-2.4313570122837973,-0.24214579028215777,0.7646120512080122,-2.3686429877162025,-0.3578542097178422,0.8353879487919879,-2.4313570122837973,,,,,,,,,,,,,,,,,,,,,,,,,,,,,,
0.43,-0.3560208095153131,0.7584464829734299,-2.3674351585133957,-0.24397919048468683,0.8415535170265702,-2.432564841486604,0.8439791904846868,0.7584464829734299,-2.3674351585133957,0.8439791904846868,0.8415535170265702,-2.432564841486604,-0.24397919048468683,0.7584464829734299,-2.3674351585133957,-0.3560208095153131,0.8415535170265702,-2.432564841486604,,,,,,,,,,,,,,,,,,,,,,,,,,,,,,
0.44,-0.3544281873178278,0.7523219230433359,-2.3662594668775347,-0.24557181268217215,0.8476780769566642,-2.433740533122465,0.8455718126821721,0.7523219230433359,-2.3662594668775347,0.8455718126821721,0.8476780769566642,-2.433740533122465,-0.24557181268217215,0.7523219230433359,-2.3662594668775347,-0.3544281873178278,0.8476780769566642,-2.433740533122465,,,,,,,,,,,,,,,,,,,,,,,,,,,,,,
0.45,-0.35307791485121554,0.7462444156189543,-2.365117073074322,-0.24692208514878444,0.8537555843810458,-2.434882926925678,0.8469220851487844,0.7462444156189543,-2.365117073074322,0.8469220851487844,0.8537555843810458,-2.434882926925678,-0.24692208514878444,0.7462444156189543,-2.365117073074322,-0.35307791485121554,0.8537555843810458,-2.434882926925678,,,,,,,,,,,,,,,,,,,,,,,,,,,,,,
0.46,-0.3519713246713805,0.7402199584663662,-2.364009104508518,-0.24802867532861947,0.8597800415336339,-2.4359908954914817,0.8480286753286195,0.7402199584663662,-2.364009104508518,0.8480286753286195,0.8597800415336339,-2.4359908954914817,-0.24802867532861947,0.7402199584663662,-2.364009104508518,-0.3519713246713805,0.8597800415336339,-2.4359908954914817,,,,,,,,,,,,,,,,,,,,,,,,,,,,,,
0.47000000000000003,-0.35110950884923,0.73425449699744,-2.362936654611331,-0.24889049115077,0.86574550300256,-2.437063345388669,0.84889049115077,0.73425449699744,-2.362936654611331,0.84889049115077,0.86574550300256,-2.437063345388669,-0.24889049115077,0.73425449699744,-2.362936654611331,-0.35110950884923,0.86574550300256,-2.437063345388669,,,,,,,,,,,,,,,,,,,,,,,,,,,,,,
0.48,-0.3504933178929321,0.7283539184024267,-2.3619007817613302,-0.2495066821070679,0.8716460815975734,-2.4380992182386696,0.8495066821070678,0.7283539184024267,-2.3619007817613302,0.8495066821070678,0.8716460815975734,-2.4380992182386696,-0.2495066821070679,0.7283539184024267,-2.3619007817613302,-0.3504933178929321,0.8716460815975734,-2.4380992182386696,,,,,,,,,,,,,,,,,,,,,,,,,,,,,,
0.49,-0.3501233599085671,0.7225240458400137,-2.3609025082399566,-0.2498766400914329,0.8774759541599864,-2.439097491760043,0.8498766400914328,0.7225240458400137,-2.3609025082399566,0.8498766400914328,0.8774759541599864,-2.439097491760043,-0.2498766400914329,0.7225240458400137,-2.3609025082399566,-0.3501233599085671,0.8774759541599864,-2.439097491760043,,,,,,,,,,,,,,,,,,,,,,,,,,,,,,
0.5,-0.35,0.7167706326905716,-2.359942819222653,-0.25,0.8832293673094285,-2.440057180777347,0.85,0.7167706326905716,-2.359942819222653,0.85,0.8832293673094285,-2.440057180777347,-0.25,0.7167706326905716,-2.359942819222653,-0.35,0.8832293673094285,-2.440057180777347,,,,,,,,,,,,,,,,,,,,,,,,,,,,,,
0.51,-0.3501233599085671,0.7110993568782604,-2.359022661806615,-0.2498766400914329,0.8889006431217397,-2.440977338193385,0.8498766400914328,0.7110993568782604,-2.359022661806615,0.8498766400914328,0.8889006431217397,-2.440977338193385,-0.2498766400914329,0.7110993568782604,-2.359022661806615,-0.3501233599085671,0.8889006431217397,-2.440977338193385,,,,,,,,,,,,,,,,,,,,,,,,,,,,,,
0.52,-0.3504933178929321,0.7055158152676058,-2.3581429440761195,-0.2495066821070679,0.8944841847323943,-2.4418570559238804,0.8495066821070678,0.7055158152676058,-2.3581429440761195,0.8495066821070678,0.8944841847323943,-2.4418570559238804,-0.2495066821070679,0.7055158152676058,-2.3581429440761195,-0.3504933178929321,0.8944841847323943,-2.4418570559238804,,,,,,,,,,,,,,,,,,,,,,,,,,,,,,
0.53,-0.35110950884923,0.700025518140068,-2.357304534206357,-0.24889049115077,0.8999744818599321,-2.442695465793643,0.84889049115077,0.700025518140068,-2.357304534206357,0.84889049115077,0.8999744818599321,-2.442695465793643,-0.24889049115077,0.700025518140068,-2.357304534206357,-0.35110950884923,0.8999744818599321,-2.442695465793643,,,,,,,,,,,,,,,,,,,,,,,,,,,,,,
0.54,-0.35197132467138054,0.6946338837560606,-2.356508259606647,-0.24802867532861944,0.9053661162439395,-2.4434917403933527,0.8480286753286195,0.6946338837560606,-2.356508259606647,0.8480286753286195,0.9053661162439395,-2.4434917403933527,-0.24802867532861944,0.6946338837560606,-2.356508259606647,-0.35197132467138054,0.9053661162439395,-2.4434917403933527,,,,,,,,,,,,,,,,,,,,,,,,,,,,,,
0.55,-0.35307791485121554,0.6893462330077806,-2.3557549061038836,-0.24692208514878441,0.9106537669922194,-2.444245093896116,0.8469220851487844,0.6893462330077806,-2.3557549061038836,0.8469220851487844,0.9106537669922194,-2.444245093896116,-0.24692208514878441,0.6893462330077806,-2.3557549061038836,-0.35307791485121554,0.9106537669922194,-2.444245093896116,,,,,,,,,,,,,,,,,,,,,,,,,,,,,,
0.56,-0.3544281873178278,0.6841677841681307,-2.3550452171670213,-0.24557181268217215,0.9158322158318694,-2.4449547828329785,0.8455718126821721,0.6841677841681307,-2.3550452171670213,0.8455718126821721,0.9158322158318694,-2.4449547828329785,-0.24557181268217215,0.6841677841681307,-2.3550452171670213,-0.3544281873178278,0.9158322158318694,-2.4449547828329785,,,,,,,,,,,,,,,,,,,,,,,,,,,,,,
0.5700000000000001,-0.3560208095153131,0.679103647740914,-2.3543798931733577,-0.24397919048468686,0.9208963522590861,-2.445620106826642,0.8439791904846868,0.679103647740914,-2.3543798931733577,0.8439791904846868,0.9208963522590861,-2.445620106826642,-0.24397919048468686,0.679103647740914,-2.3543798931733577,-0.3560208095153131,0.9208963522590861,-2.445620106826642,,,,,,,,,,,,,,,,,,,,,,,,,,,,,,
0.58,-0.3578542097178422,0.6741588214173836,-2.3537595907173503,-0.2421457902821578,0.9258411785826165,-2.4462404092826495,0.8421457902821577,0.6741588214173836,-2.3537595907173503,0.8421457902821577,0.9258411785826165,-2.4462404092826495,-0.2421457902821578,0.6741588214173836,-2.3537595907173503,-0.3578542097178422,0.9258411785826165,-2.4462404092826495,,,,,,,,,,,,,,,,,,,,,,,,,,,,,,
0.59,-0.3599265785807642,0.6693381851441245,-2.3531849219626326,-0.24007342141923577,0.9306618148558756,-2.446815078037367,0.8400734214192358,0.6693381851441245,-2.3531849219626326,0.8400734214192358,0.9306618148558756,-2.446815078037367,-0.24007342141923577,0.6693381851441245,-2.3531849219626326,-0.3599265785807642,0.9306618148558756,-2.446815078037367,,,,,,,,,,,,,,,,,,,,,,,,,,,,,,
0.6,-0.36223587092621157,0.6646464963071361,-2.3526564540378847,-0.2377641290737884,0.935353503692864,-2.447343545962115,0.8377641290737884,0.6646464963071361,-2.3526564540378847,0.8377641290737884,0.935353503692864,-2.447343545962115,-0.2377641290737884,0.6646464963071361,-2.3526564540378847,-0.36223587092621157,0.935353503692864,-2.447343545962115,,,,,,,,,,,,,,,,,,,,,,,,,,,,,,
0.61,-0.3647798077614436,0.6600883850368661,-2.3521747084771456,-0.23522019223855636,0.939911614963134,-2.447825291522854,0.8352201922385564,0.6600883850368661,-2.3521747084771456,0.8352201922385564,0.939911614963134,-2.447825291522854,-0.23522019223855636,0.6600883850368661,-2.3521747084771456,-0.3647798077614436,0.939911614963134,-2.447825291522854,,,,,,,,,,,,,,,,,,,,,,,,,,,,,,
0.62,-0.36755587852793714,0.6556683496388306,-2.3517401607051225,-0.23244412147206286,0.9443316503611695,-2.4482598392948773,0.8324441214720628,0.6556683496388306,-2.3517401607051225,0.8324441214720628,0.9443316503611695,-2.4482598392948773,-0.23244412147206286,0.6556683496388306,-2.3517401607051225,-0.36755587852793714,0.9443316503611695,-2.4482598392948773,,,,,,,,,,,,,,,,,,,,,,,,,,,,,,
0.63,-0.37056134357900467,0.6513907521543303,-2.3513532395680024,-0.2294386564209953,0.9486092478456698,-2.4486467604319975,0.8294386564209952,0.6513907521543303,-2.3513532395680024,0.8294386564209952,0.9486092478456698,-2.4486467604319975,-0.2294386564209953,0.6513907521543303,-2.3513532395680024,-0.37056134357900467,0.9486092478456698,-2.4486467604319975,,,,,,,,,,,,,,,,,,,,,,,,,,,,,,
0.64,-0.3737932368834951,0.6472598140556417,-2.351014326910234,-0.22620676311650487,0.9527401859443584,-2.4489856730897657,0.8262067631165049,0.6472598140556417,-2.351014326910234,0.8262067631165049,0.9527401859443584,-2.4489856730897657,-0.22620676311650487,0.6472598140556417,-2.351014326910234,-0.3737932368834951,0.9527401859443584,-2.4489856730897657,,,,,,,,,,,,,,,,,,,,,,,,,,,,,,
0.65,-0.37724836895290803,0.6432796120799342,-2.3507237571976933,-0.22275163104709197,0.9567203879200659,-2.4492762428023065,0.8227516310470919,0.6432796120799342,-2.3507237571976933,0.8227516310470919,0.9567203879200659,-2.4492762428023065,-0.22275163104709197,0.6432796120799342,-2.3507237571976933,-0.37724836895290803,0.9567203879200659,-2.4492762428023065,,,,,,,,,,,,,,,,,,,,,,,,,,,,,,
0.66,-0.3809233299890341,0.6394540742060218,-2.350481817187606,-0.21907667001096587,0.9605459257939782,-2.449518182812394,0.8190766700109658,0.6394540742060218,-2.350481817187606,0.8190766700109658,0.9605459257939782,-2.449518182812394,-0.21907667001096587,0.6394540742060218,-2.350481817187606,-0.3809233299890341,0.9605459257939782,-2.449518182812394,,,,,,,,,,,,,,,,,,,,,,,,,,,,,,
0.67,-0.38481449324901407,0.6357869757779238,-2.350288745645551,-0.2151855067509859,0.9642130242220763,-2.449711254354449,0.8151855067509859,0.6357869757779238,-2.350288745645551,0.8151855067509859,0.9642130242220763,-2.449711254354449,-0.2151855067509859,0.6357869757779238,-2.350288745645551,-0.38481449324901407,0.9642130242220763,-2.449711254354449,,,,,,,,,,,,,,,,,,,,,,,,,,,,,,
0.68,-0.38891801862449626,0.6322819357790543,-2.350144733109832,-0.21108198137550374,0.9677180642209458,-2.4498552668901676,0.8110819813755037,0.6322819357790543,-2.350144733109832,0.8110819813755037,0.9677180642209458,-2.4498552668901676,-0.21108198137550374,0.6322819357790543,-2.350144733109832,-0.38891801862449626,0.9677180642209458,-2.4498552668901676,,,,,,,,,,,,,,,,,,,,,,,,,,,,,,
0.6900000000000001,-0.39322985643135955,0.6289424132607235,-2.3500499217034343,-0.20677014356864043,0.9710575867392766,-2.4499500782965655,0.8067701435686404,0.6289424132607235,-2.3500499217034343,0.8067701435686404,0.9710575867392766,-2.4499500782965655,-0.20677014356864043,0.6289424132607235,-2.3500499217034343,-0.39322985643135955,0.9710575867392766,-2.4499500782965655,,,,,,,,,,,,,,,,,,,,,,,,,,,,,,
0.7000000000000001,-0.3977457514062631,0.6257717039284717,-2.350004404993769,-0.20225424859373686,0.9742282960715284,-2.449995595006231,0.8022542485937368,0.6257717039284717,-2.350004404993769,0.8022542485937368,0.9742282960715284,-2.449995595006231,-0.20225424859373686,0.6257717039284717,-2.350004404993769,-0.3977457514062631,0.9742282960715284,-2.449995595006231,,,,,,,,,,,,,,,,,,,,,,,,,,,,,,
0.71,-0.4024612469060773,0.6227729368896054,-2.3500082279003336,-0.19753875309392263,0.9772270631103946,-2.4499917720996662,0.7975387530939226,0.6227729368896054,-2.3500082279003336,0.7975387530939226,0.9772270631103946,-2.4499917720996662,-0.19753875309392263,0.6227729368896054,-2.3500082279003336,-0.4024612469060773,0.9772270631103946,-2.4499917720996662,,,,,,,,,,,,,,,,,,,,,,,,,,,,,,
0.72,-0.40737168930605266,0.6199490715651464,-2.350061386650381,-0.1926283106939473,0.9800509284348536,-2.449938613349619,0.7926283106939473,0.6199490715651464,-2.350061386650381,0.7926283106939473,0.9800509284348536,-2.449938613349619,-0.1926283106939473,0.6199490715651464,-2.350061386650381,-0.40737168930605266,0.9800509284348536,-2.449938613349619,,,,,,,,,,,,,,,,,,,,,,,,,,,,,,
0.73,-0.4124722325923851,0.6173028947692406,-2.350163828782642,-0.1875277674076149,0.9826971052307595,-2.449836171217358,0.7875277674076149,0.6173028947692406,-2.350163828782642,0.7875277674076149,0.9826971052307595,-2.449836171217358,-0.1875277674076149,0.6173028947692406,-2.350163828782642,-0.4124722325923851,0.9826971052307595,-2.449836171217358,,,,,,,,,,,,,,,,,,,,,,,,,,,,,,
0.74,-0.41775784314464715,0.6148370179589087,-2.350315453199101,-0.18224215685535286,0.9851629820410914,-2.4496845468008988,0.7822421568553528,0.6148370179589087,-2.350315453199101,0.7822421568553528,0.9851629820410914,-2.4496845468008988,-0.18224215685535286,0.6148370179589087,-2.350315453199101,-0.41775784314464715,0.9851629820410914,-2.4496845468008988,,,,,,,,,,,,,,,,,,,,,,,,,,,,,,
0.75,-0.4232233047033631,0.6125538746568536,-2.3505161102647647,-0.1767766952966369,0.9874461253431465,-2.449483889735235,0.7767766952966368,0.6125538746568536,-2.3505161102647647,0.7767766952966368,0.9874461253431465,-2.449483889735235,-0.1767766952966369,0.6125538746568536,-2.3505161102647647,-0.4232233047033631,0.9874461253431465,-2.449483889735235,,,,,,,,,,,,,,,,,,,,,,,,,,,,,,
0.76,-0.4288632235178278,0.6104557180498673,-2.3507656019553345,-0.1711367764821722,0.9895442819501328,-2.4492343980446654,0.7711367764821722,0.6104557180498673,-2.3507656019553345,0.7711367764821722,0.9895442819501328,-2.4492343980446654,-0.1711367764821722,0.6104557180498673,-2.3507656019553345,-0.4288632235178278,0.9895442819501328,-2.4492343980446654,,,,,,,,,,,,,,,,,,,,,,,,,,,,,,
0.77,-0.434672033669087,0.6085446187652072,-2.3510636820526334,-0.16532796633091296,0.9914553812347929,-2.4489363179473664,0.7653279663309129,0.6085446187652072,-2.3510636820526334,0.7653279663309129,0.9914553812347929,-2.4489363179473664,-0.16532796633091296,0.6085446187652072,-2.3510636820526334,-0.434672033669087,0.9914553812347929,-2.4489363179473664,,,,,,,,,,,,,,,,,,,,,,,,,,,,,,
0.78,-0.44064400256282754,0.6068224628271376,-2.3514100563875933,-0.15935599743717246,0.9931775371728625,-2.4485899436124066,0.7593559974371724,0.6068224628271376,-2.3514100563875933,0.7593559974371724,0.9931775371728625,-2.4485899436124066,-0.15935599743717246,0.6068224628271376,-2.3514100563875933,-0.44064400256282754,0.9931775371728625,-2.4485899436124066,,,,,,,,,,,,,,,,,,,,,,,,,,,,,,
0.79,-0.4467732365867559,0.6052909497956509,-2.3518043831305633,-0.1532267634132441,0.9947090502043492,-2.4481956168694365,0.7532267634132441,0.6052909497956509,-2.3518043831305633,0.7532267634132441,0.9947090502043492,-2.4481956168694365,-0.1532267634132441,0.6052909497956509,-2.3518043831305633,-0.4467732365867559,0.9947090502043492,-2.4481956168694365,,,,,,,,,,,,,,,,,,,,,,,,,,,,,,
0.8,-0.45305368692688164,0.6039515910892074,-2.352246273128656,-0.1469463130731183,0.9960484089107927,-2.4477537268713436,0.7469463130731183,0.6039515910892074,-2.352246273128656,0.7469463130731183,0.9960484089107927,-2.4477537268713436,-0.1469463130731183,0.6039515910892074,-2.352246273128656,-0.45305368692688164,0.9960484089107927,-2.4477537268713436,,,,,,,,,,,,,,,,,,,,,,,,,,,,,,
0.81,-0.4594791555369674,0.6028057084931475,-2.352735290289794,-0.14052084446303262,0.9971942915068526,-2.447264709710206,0.7405208444630326,0.6028057084931475,-2.352735290289794,0.7405208444630326,0.9971942915068526,-2.447264709710206,-0.14052084446303262,0.6028057084931475,-2.352735290289794,-0.4594791555369674,0.9971942915068526,-2.447264709710206,,,,,,,,,,,,,,,,,,,,,,,,,,,,,,
0.8200000000000001,-0.46604330125525084,0.6018544328552496,-2.3532709520130783,-0.13395669874474916,0.9981455671447504,-2.4467290479869215,0.7339566987447491,0.6018544328552496,-2.3532709520130783,0.7339566987447491,0.9981455671447504,-2.4467290479869215,-0.13395669874474916,0.6018544328552496,-2.3532709520130783,-0.46604330125525084,0.9981455671447504,-2.4467290479869215,,,,,,,,,,,,,,,,,,,,,,,,,,,,,,
0.8300000000000001,-0.4727396460624072,0.6010987029697195,-2.353852729665059,-0.12726035393759277,0.9989012970302806,-2.446147270334941,0.7272603539375928,0.6010987029697195,-2.353852729665059,0.7272603539375928,0.9989012970302806,-2.446147270334941,-0.12726035393759277,0.6010987029697195,-2.353852729665059,-0.4727396460624072,0.9989012970302806,-2.446147270334941,,,,,,,,,,,,,,,,,,,,,,,,,,,,,,
0.84,-0.47956158147457106,0.6005392646507135,-2.354480049101433,-0.1204384185254289,0.9994607353492866,-2.445519950898567,0.7204384185254289,0.6005392646507135,-2.354480049101433,0.7204384185254289,0.9994607353492866,-2.445519950898567,-0.1204384185254289,0.6005392646507135,-2.354480049101433,-0.47956158147457106,0.9994607353492866,-2.445519950898567,,,,,,,,,,,,,,,,,,,,,,,,,,,,,,
0.85,-0.4865023750651133,0.6001766699963108,-2.3551522912336535,-0.11349762493488671,0.9998233300036893,-2.4448477087663463,0.7134976249348867,0.6001766699963108,-2.3551522912336535,0.7134976249348867,0.9998233300036893,-2.4448477087663463,-0.11349762493488671,0.6001766699963108,-2.3551522912336535,-0.4865023750651133,0.9998233300036893,-2.4448477087663463,,,,,,,,,,,,,,,,,,,,,,,,,,,,,,
0.86,-0.49355517710873176,0.6000112768436588,-2.355868792639897,-0.10644482289126822,0.9999887231563412,-2.444131207360103,0.7064448228912682,0.6000112768436588,-2.355868792639897,0.7064448228912682,0.9999887231563412,-2.444131207360103,-0.10644482289126822,0.6000112768436588,-2.355868792639897,-0.49355517710873176,0.9999887231563412,-2.444131207360103,,,,,,,,,,,,,,,,,,,,,,,,,,,,,,
0.87,-0.5007130273413049,0.600043248415831,-2.3566288462197797,-0.09928697265869516,0.9999567515841691,-2.44337115378022,0.6992869726586951,0.600043248415831,-2.3566288462197797,0.6992869726586951,0.9999567515841691,-2.44337115378022,-0.09928697265869516,0.600043248415831,-2.3566288462197797,-0.5007130273413049,0.9999567515841691,-2.44337115378022,,,,,,,,,,,,,,,,,,,,,,,,,,,,,,
0.88,-0.5079688618288305,0.6002725531607456,-2.357431701892181,-0.09203113817116954,0.9997274468392545,-2.442568298107819,0.6920311381711695,0.6002725531607456,-2.357431701892181,0.6920311381711695,0.9997274468392545,-2.442568298107819,-0.09203113817116954,0.6002725531607456,-2.357431701892181,-0.5079688618288305,0.9997274468392545,-2.442568298107819,,,,,,,,,,,,,,,,,,,,,,,,,,,,,,
0.89,-0.5153155199386772,0.6006989647823036,-2.3582765673354813,-0.08468448006132283,0.9993010352176965,-2.4417234326645185,0.6846844800613228,0.6006989647823036,-2.3582765673354813,0.6846844800613228,0.9993010352176965,-2.4417234326645185,-0.08468448006132283,0.6006989647823036,-2.3582765673354813,-0.5153155199386772,0.9993010352176965,-2.4417234326645185,,,,,,,,,,,,,,,,,,,,,,,,,,,,,,
0.9,-0.5227457514062631,0.6013220624637159,-2.3591626087694904,-0.07725424859373688,0.9986779375362842,-2.4408373912305095,0.6772542485937368,0.6013220624637159,-2.3591626087694904,0.6772542485937368,0.9986779375362842,-2.4408373912305095,-0.07725424859373688,0.6013220624637159,-2.3591626087694904,-0.5227457514062631,0.9986779375362842,-2.4408373912305095,,,,,,,,,,,,,,,,,,,,,,,,,,,,,,
0.91,-0.5302522234901927,0.6021412312827985,-2.360088951778286,-0.06974777650980728,0.9978587687172016,-2.4399110482217137,0.6697477765098072,0.6021412312827985,-2.360088951778286,0.6697477765098072,0.9978587687172016,-2.4399110482217137,-0.06974777650980728,0.6021412312827985,-2.360088951778286,-0.5302522234901927,0.9978587687172016,-2.4399110482217137,,,,,,,,,,,,,,,,,,,,,,,,,,,,,,
0.92,-0.5378275282087863,0.6031556628188262,-2.3610546821731573,-0.062172471791213706,0.9968443371811739,-2.4389453178268425,0.6621724717912136,0.6031556628188262,-2.3610546821731573,0.6621724717912136,0.9968443371811739,-2.4389453178268425,-0.062172471791213706,0.6031556628188262,-2.3610546821731573,-0.5378275282087863,0.9968443371811739,-2.4389453178268425,,,,,,,,,,,,,,,,,,,,,,,,,,,,,,
0.93,-0.5454641896508644,0.604364355950347,-2.3620588468947985,-0.05453581034913558,0.9956356440496531,-2.4379411531052013,0.6545358103491355,0.604364355950347,-2.3620588468947985,0.6545358103491355,0.9956356440496531,-2.4379411531052013,-0.05453581034913558,0.604364355950347,-2.3620588468947985,-0.5454641896508644,0.9956356440496531,-2.4379411531052013,,,,,,,,,,,,,,,,,,,,,,,,,,,,,,
0.9400000000000001,-0.5531546713535689,0.6057661178431673,-2.3631004549538637,-0.04684532864643114,0.9942338821568328,-2.436899545046136,0.6468453286464311,0.6057661178431673,-2.3631004549538637,0.6468453286464311,0.9942338821568328,-2.436899545046136,-0.04684532864643114,0.6057661178431673,-2.3631004549538637,-0.5531546713535689,0.9942338821568328,-2.436899545046136,,,,,,,,,,,,,,,,,,,,,,,,,,,,,,
0.9500000000000001,-0.5608913837399422,0.6073595651275354,-2.3641784784089532,-0.039108616260057745,0.9926404348724647,-2.4358215215910466,0.6391086162600578,0.6073595651275354,-2.3641784784089532,0.6391086162600578,0.9926404348724647,-2.4358215215910466,-0.039108616260057745,0.6073595651275354,-2.3641784784089532,-0.5608913837399422,0.9926404348724647,-2.4358215215910466,,,,,,,,,,,,,,,,,,,,,,,,,,,,,,
0.96,-0.5686666916089238,0.6091431252633612,-2.3652918533810685,-0.031333308391076134,0.9908568747366389,-2.4347081466189313,0.6313333083910762,0.6091431252633612,-2.3652918533810685,0.6313333083910762,0.9908568747366389,-2.4347081466189313,-0.031333308391076134,0.6091431252633612,-2.3652918533810685,-0.5686666916089238,0.9908568747366389,-2.4347081466189313,,,,,,,,,,,,,,,,,,,,,,,,,,,,,,
0.97,-0.5764729216703713,0.6111150380921224,-2.3664394811035314,-0.023527078329628588,0.9888849619078777,-2.4335605188964684,0.6235270783296286,0.6111150380921224,-2.3664394811035314,0.6235270783296286,0.9888849619078777,-2.4335605188964684,-0.023527078329628588,0.6111150380921224,-2.3664394811035314,-0.5764729216703713,0.9888849619078777,-2.4335605188964684,,,,,,,,,,,,,,,,,,,,,,,,,,,,,,
0.98,-0.5843023701176716,0.6132733575739289,-2.3676202290063344,-0.015697629882328396,0.9867266424260712,-2.4323797709936654,0.6156976298823283,0.6132733575739289,-2.3676202290063344,0.6156976298823283,0.9867266424260712,-2.4323797709936654,-0.015697629882328396,0.6132733575739289,-2.3676202290063344,-0.5843023701176716,0.9867266424260712,-2.4323797709936654,,,,,,,,,,,,,,,,,,,,,,,,,,,,,,
0.99,-0.592147310230468,0.615615953708029,-2.3688329318338512,-0.007852689769532059,0.9843840462919711,-2.4311670681661486,0.607852689769532,0.615615953708029,-2.3688329318338512,0.607852689769532,0.9843840462919711,-2.4311670681661486,-0.007852689769532059,0.615615953708029,-2.3688329318338512,-0.592147310230468,0.9843840462919711,-2.4311670681661486,,,,,,,,,,,,,,,,,,,,,,,,,,,,,,
1.0,-0.6,0.6181405146348637,-2.370076392794802,-3.061616997868383e-17,0.9818594853651363,-2.4299236072051977,0.6,0.6181405146348637,-2.370076392794802,0.6,0.9818594853651363,-2.4299236072051977,-3.061616997868383e-17,0.6181405146348637,-2.370076392794802,-0.6,0.9818594853651363,-2.4299236072051977,,,,,,,,,,,,,,,,,,,,,,,,,,,,,,
1.01,-0.607852689769532,0.620844548917592,-2.371349384743344,0.007852689769531998,0.9791554510824081,-2.428650615256656,0.592147310230468,0.620844548917592,-2.371349384743344,0.592147310230468,0.9791554510824081,-2.428650615256656,0.007852689769531998,0.620844548917592,-2.371349384743344,-0.607852689769532,0.9791554510824081,-2.428650615256656,,,,,,,,,,,,,,,,,,,,,,,,,,,,,,
1.02,-0.6156976298823283,0.6237253880008389,-2.3726506513901127,0.015697629882328337,0.9762746119991612,-2.427349348609887,0.5843023701176716,0.6237253880008389,-2.3726506513901127,0.5843023701176716,0.9762746119991612,-2.427349348609887,0.015697629882328337,0.6237253880008389,-2.3726506513901127,-0.6156976298823283,0.9762746119991612,-2.427349348609887,,,,,,,,,,,,,,,,,,,,,,,,,,,,,,
1.03,-0.6235270783296285,0.6267801888442371,-2.3739789085420333,0.023527078329628526,0.973219811155763,-2.4260210914579665,0.5764729216703715,0.6267801888442371,-2.3739789085420333,0.5764729216703715,0.973219811155763,-2.4260210914579665,0.023527078329628526,0.6267801888442371,-2.3739789085420333,-0.6235270783296285,0.973219811155763,-2.4260210914579665,,,,,,,,,,,,,,,,,,,,,,,,,,,,,,
1.04,-0.631333308391076,0.630005936728165,-2.375332845369658,0.03133330839107607,0.9699940632718351,-2.4246671546303418,0.5686666916089239,0.630005936728165,-2.375332845369658,0.5686666916089239,0.9699940632718351,-2.4246671546303418,0.03133330839107607,0.630005936728165,-2.375332845369658,-0.631333308391076,0.9699940632718351,-2.4246671546303418,,,,,,,,,,,,,,,,,,,,,,,,,,,,,,
1.05,-0.6391086162600577,0.63339944822891,-2.3767111257008016,0.03910861626005768,0.96660055177109,-2.4232888742991983,0.5608913837399423,0.63339944822891,-2.3767111257008016,0.5608913837399423,0.96660055177109,-2.4232888742991983,0.03910861626005768,0.63339944822891,-2.3767111257008016,-0.6391086162600577,0.96660055177109,-2.4232888742991983,,,,,,,,,,,,,,,,,,,,,,,,,,,,,,
1.06,-0.6468453286464312,0.636957374360325,-2.378112389339178,0.04684532864643119,0.9630426256396751,-2.421887610660822,0.5531546713535688,0.636957374360325,-2.378112389339178,0.5531546713535688,0.9630426256396751,-2.421887610660822,0.04684532864643119,0.636957374360325,-2.378112389339178,-0.6468453286464312,0.9630426256396751,-2.421887610660822,,,,,,,,,,,,,,,,,,,,,,,,,,,,,,
1.07,-0.6545358103491357,0.6406762038788714,-2.379535253406754,0.05453581034913563,0.9593237961211287,-2.420464746593246,0.5454641896508643,0.6406762038788714,-2.379535253406754,0.5454641896508643,0.9593237961211287,-2.420464746593246,0.05453581034913563,0.6406762038788714,-2.379535253406754,-0.6545358103491357,0.9593237961211287,-2.420464746593246,,,,,,,,,,,,,,,,,,,,,,,,,,,,,,
1.08,-0.6621724717912137,0.6445522667487943,-2.3809783137084786,0.062172471791213754,0.9554477332512058,-2.4190216862915213,0.5378275282087862,0.6445522667487943,-2.3809783137084786,0.5378275282087862,0.9554477332512058,-2.4190216862915213,0.062172471791213754,0.6445522667487943,-2.3809783137084786,-0.6621724717912137,0.9554477332512058,-2.4190216862915213,,,,,,,,,,,,,,,,,,,,,,,,,,,,,,
1.09,-0.6697477765098073,0.648581737764004,-2.3824401461180567,0.06974777650980732,0.9514182622359961,-2.417559853881943,0.5302522234901926,0.648581737764004,-2.3824401461180567,0.5302522234901926,0.9514182622359961,-2.417559853881943,0.06974777650980732,0.648581737764004,-2.3824401461180567,-0.6697477765098073,0.9514182622359961,-2.417559853881943,,,,,,,,,,,,,,,,,,,,,,,,,,,,,,
1.1,-0.677254248593737,0.6527606403230921,-2.3839193079833896,0.07725424859373693,0.947239359676908,-2.4160806920166102,0.522745751406263,0.6527606403230921,-2.3839193079833896,0.522745751406263,0.947239359676908,-2.4160806920166102,0.07725424859373693,0.6527606403230921,-2.3839193079833896,-0.677254248593737,0.947239359676908,-2.4160806920166102,,,,,,,,,,,,,,,,,,,,,,,,,,,,,,
1.11,-0.6846844800613229,0.6570848503537581,-2.385414339550297,0.08468448006132287,0.942915149646242,-2.4145856604497027,0.5153155199386771,0.6570848503537581,-2.385414339550297,0.5153155199386771,0.942915149646242,-2.4145856604497027,0.08468448006132287,0.6570848503537581,-2.385414339550297,-0.6846844800613229,0.942915149646242,-2.4145856604497027,,,,,,,,,,,,,,,,,,,,,,,,,,,,,,
1.12,-0.6920311381711696,0.6615501003827698,-2.386923765403121,0.09203113817116958,0.9384498996172302,-2.413076234596879,0.5079688618288304,0.6615501003827698,-2.386923765403121,0.5079688618288304,0.9384498996172302,-2.413076234596879,0.09203113817116958,0.6615501003827698,-2.386923765403121,-0.6920311381711696,0.9384498996172302,-2.413076234596879,,,,,,,,,,,,,,,,,,,,,,,,,,,,,,
1.1300000000000001,-0.6992869726586952,0.6661519837474448,-2.3884460959207785,0.0992869726586952,0.9338480162525553,-2.4115539040792213,0.5007130273413047,0.6661519837474448,-2.3884460959207785,0.5007130273413047,0.9338480162525553,-2.4115539040792213,0.0992869726586952,0.6661519837474448,-2.3884460959207785,-0.6992869726586952,0.9338480162525553,-2.4115539040792213,,,,,,,,,,,,,,,,,,,,,,,,,,,,,,
1.1400000000000001,-0.7064448228912681,0.6708859589444942,-2.3899798287468426,0.10644482289126816,0.9291140410555059,-2.4100201712531573,0.4935551771087318,0.6708859589444942,-2.3899798287468426,0.4935551771087318,0.9291140410555059,-2.4100201712531573,0.10644482289126816,0.6708859589444942,-2.3899798287468426,-0.7064448228912681,0.9291140410555059,-2.4100201712531573,,,,,,,,,,,,,,,,,,,,,,,,,,,,,,
1.1500000000000001,-0.7134976249348868,0.6757473541119384,-2.391523450272184,0.11349762493488677,0.9242526458880617,-2.408476549727816,0.4865023750651132,0.6757473541119384,-2.391523450272184,0.4865023750651132,0.9242526458880617,-2.408476549727816,0.11349762493488677,0.6757473541119384,-2.391523450272184,-0.7134976249348868,0.9242526458880617,-2.408476549727816,,,,,,,,,,,,,,,,,,,,,,,,,,,,,,
1.16,-0.7204384185254287,0.6807313716396701,-2.3930754371287195,0.12043841852542875,0.91926862836033,-2.4069245628712803,0.47956158147457123,0.6807313716396701,-2.3930754371287195,0.47956158147457123,0.91926862836033,-2.4069245628712803,0.12043841852542875,0.6807313716396701,-2.3930754371287195,-0.7204384185254287,0.91926862836033,-2.4069245628712803,,,,,,,,,,,,,,,,,,,,,,,,,,,,,,
1.17,-0.7272603539375927,0.6858330929041176,-2.3946342576927973,0.12726035393759272,0.9141669070958824,-2.4053657423072026,0.47273964606240726,0.6858330929041176,-2.3946342576927973,0.47273964606240726,0.9141669070958824,-2.4053657423072026,0.12726035393759272,0.6858330929041176,-2.3946342576927973,-0.7272603539375927,0.9141669070958824,-2.4053657423072026,,,,,,,,,,,,,,,,,,,,,,,,,,,,,,
1.18,-0.7339566987447491,0.6910474831223312,-2.396198373596718,0.1339566987447491,0.9089525168776689,-2.4038016264032818,0.46604330125525084,0.6910474831223312,-2.396198373596718,0.46604330125525084,0.9089525168776689,-2.4038016264032818,0.1339566987447491,0.6910474831223312,-2.396198373596718,-0.7339566987447491,0.9089525168776689,-2.4038016264032818,,,,,,,,,,,,,,,,,,,,,,,,,,,,,,
1.19,-0.7405208444630326,0.696369396320706,-2.3977662412469227,0.14052084446303256,0.903630603679294,-2.402233758753077,0.4594791555369674,0.696369396320706,-2.3977662412469227,0.4594791555369674,0.903630603679294,-2.402233758753077,0.14052084446303256,0.696369396320706,-2.3977662412469227,-0.7405208444630326,0.903630603679294,-2.402233758753077,,,,,,,,,,,,,,,,,,,,,,,,,,,,,,
1.2,-0.7469463130731182,0.701793580413438,-2.399336313347332,0.14694631307311826,0.8982064195865621,-2.400663686652668,0.45305368692688175,0.701793580413438,-2.399336313347332,0.45305368692688175,0.8982064195865621,-2.400663686652668,0.14694631307311826,0.701793580413438,-2.399336313347332,-0.7469463130731182,0.8982064195865621,-2.400663686652668,,,,,,,,,,,,,,,,,,,,,,,,,,,,,,
1.21,-0.753226763413244,0.7073146823856972,-2.4009070404263397,0.15322676341324407,0.8926853176143029,-2.39909295957366,0.44677323658675594,0.7073146823856972,-2.4009070404263397,0.44677323658675594,0.8926853176143029,-2.39909295957366,0.15322676341324407,0.7073146823856972,-2.4009070404263397,-0.753226763413244,0.8926853176143029,-2.39909295957366,,,,,,,,,,,,,,,,,,,,,,,,,,,,,,
1.22,-0.7593559974371724,0.7129272535764076,-2.4024768723659546,0.1593559974371724,0.8870727464235925,-2.397523127634045,0.44064400256282754,0.7129272535764076,-2.4024768723659546,0.44064400256282754,0.8870727464235925,-2.397523127634045,0.1593559974371724,0.7129272535764076,-2.4024768723659546,-0.7593559974371724,0.8870727464235925,-2.397523127634045,,,,,,,,,,,,,,,,,,,,,,,,,,,,,,
1.23,-0.7653279663309129,0.7186257550554181,-2.404044259931581,0.16532796633091293,0.8813742449445819,-2.395955740068419,0.434672033669087,0.7186257550554181,-2.404044259931581,0.434672033669087,0.8813742449445819,-2.395955740068419,0.16532796633091293,0.7186257550554181,-2.404044259931581,-0.7653279663309129,0.8813742449445819,-2.395955740068419,,,,,,,,,,,,,,,,,,,,,,,,,,,,,,
1.24,-0.7711367764821722,0.7244045630897574,-2.4056076563009245,0.17113677648217218,0.8755954369102427,-2.3943923436990753,0.4288632235178278,0.7244045630897574,-2.4056076563009245,0.4288632235178278,0.8755954369102427,-2.3943923436990753,0.17113677648217218,0.7244045630897574,-2.4056076563009245,-0.7711367764821722,0.8755954369102427,-2.3943923436990753,,,,,,,,,,,,,,,,,,,,,,,,,,,,,,
1.25,-0.7767766952966368,0.7302579746935792,-2.407165518590519,0.17677669529663687,0.8697420253064209,-2.392834481409481,0.4232233047033631,0.7302579746935792,-2.407165518590519,0.4232233047033631,0.8697420253064209,-2.392834481409481,0.17677669529663687,0.7302579746935792,-2.407165518590519,-0.7767766952966368,0.8697420253064209,-2.392834481409481,,,,,,,,,,,,,,,,,,,,,,,,,,,,,,
1.26,-0.7822421568553528,0.7361802132563218,-2.408716309378369,0.18224215685535283,0.8638197867436783,-2.391283690621631,0.41775784314464715,0.7361802132563218,-2.408716309378369,0.41775784314464715,0.8638197867436783,-2.391283690621631,0.18224215685535283,0.7361802132563218,-2.408716309378369,-0.7822421568553528,0.8638197867436783,-2.391283690621631,,,,,,,,,,,,,,,,,,,,,,,,,,,,,,
1.27,-0.7875277674076149,0.7421654342435242,-2.4102584982211943,0.18752776740761487,0.8578345657564759,-2.3897415017788055,0.4124722325923851,0.7421654342435242,-2.4102584982211943,0.4124722325923851,0.8578345657564759,-2.3897415017788055,0.18752776740761487,0.7421654342435242,-2.4102584982211943,-0.7875277674076149,0.8578345657564759,-2.3897415017788055,,,,,,,,,,,,,,,,,,,,,,,,,,,,,,
1.28,-0.7926283106939473,0.7482077309646764,-2.4117905631647996,0.19262831069394734,0.8517922690353237,-2.3882094368352003,0.4073716893060526,0.7482077309646764,-2.4117905631647996,0.4073716893060526,0.8517922690353237,-2.3882094368352003,0.19262831069394734,0.7482077309646764,-2.4117905631647996,-0.7926283106939473,0.8517922690353237,-2.3882094368352003,,,,,,,,,,,,,,,,,,,,,,,,,,,,,,
1.29,-0.7975387530939226,0.75430114040241,-2.413310992246053,0.1975387530939226,0.8456988595975901,-2.386689007753947,0.4024612469060774,0.75430114040241,-2.413310992246053,0.4024612469060774,0.8456988595975901,-2.386689007753947,0.1975387530939226,0.75430114040241,-2.413310992246053,-0.7975387530939226,0.8456988595975901,-2.386689007753947,,,,,,,,,,,,,,,,,,,,,,,,,,,,,,
1.3,-0.8022542485937368,0.7604396490972763,-2.4148182849850146,0.20225424859373684,0.8395603509027237,-2.385181715014985,0.3977457514062631,0.7604396490972763,-2.4148182849850146,0.3977457514062631,0.8395603509027237,-2.385181715014985,0.20225424859373684,0.7604396490972763,-2.4148182849850146,-0.8022542485937368,0.8395603509027237,-2.385181715014985,,,,,,,,,,,,,,,,,,,,,,,,,,,,,,
1.31,-0.8067701435686404,0.7666171990823045,-2.4163109538657297,0.2067701435686404,0.8333828009176956,-2.38368904613427,0.39322985643135955,0.7666171990823045,-2.4163109538657297,0.39322985643135955,0.8333828009176956,-2.38368904613427,0.2067701435686404,0.7666171990823045,-2.4163109538657297,-0.8067701435686404,0.8333828009176956,-2.38368904613427,,,,,,,,,,,,,,,,,,,,,,,,,,,,,,
1.32,-0.8110819813755038,0.7728276938614843,-2.4177875258042247,0.21108198137550382,0.8271723061385158,-2.382212474195775,0.38891801862449615,0.7728276938614843,-2.4177875258042247,0.38891801862449615,0.8271723061385158,-2.382212474195775,0.21108198137550382,0.7728276938614843,-2.4177875258042247,-0.8110819813755038,0.8271723061385158,-2.382212474195775,,,,,,,,,,,,,,,,,,,,,,,,,,,,,,
1.33,-0.8151855067509859,0.7790650044262704,-2.4192465436022648,0.21518550675098594,0.8209349955737297,-2.380753456397735,0.38481449324901407,0.7790650044262704,-2.4192465436022648,0.38481449324901407,0.8209349955737297,-2.380753456397735,0.21518550675098594,0.7790650044262704,-2.4192465436022648,-0.8151855067509859,0.8209349955737297,-2.380753456397735,,,,,,,,,,,,,,,,,,,,,,,,,,,,,,
1.34,-0.8190766700109658,0.785322975304175,-2.4206865673854328,0.2190766700109659,0.814677024695825,-2.379313432614567,0.3809233299890341,0.785322975304175,-2.4206865673854328,0.3809233299890341,0.814677024695825,-2.379313432614567,0.2190766700109659,0.785322975304175,-2.4206865673854328,-0.8190766700109658,0.814677024695825,-2.379313432614567,,,,,,,,,,,,,,,,,,,,,,,,,,,,,,
1.35,-0.8227516310470919,0.7915954306334758,-2.422106176024111,0.22275163104709195,0.8084045693665243,-2.3778938239758887,0.37724836895290803,0.7915954306334758,-2.422106176024111,0.37724836895290803,0.8084045693665243,-2.3778938239758887,0.22275163104709195,0.7915954306334758,-2.422106176024111,-0.8227516310470919,0.8084045693665243,-2.3778938239758887,,,,,,,,,,,,,,,,,,,,,,,,,,,,,,
1.36,-0.8262067631165049,0.7978761802580455,-2.4235039685359645,0.22620676311650495,0.8021238197419546,-2.3764960314640353,0.37379323688349503,0.7978761802580455,-2.4235039685359645,0.37379323688349503,0.8021238197419546,-2.3764960314640353,0.22620676311650495,0.7978761802580455,-2.4235039685359645,-0.8262067631165049,0.8021238197419546,-2.3764960314640353,,,,,,,,,,,,,,,,,,,,,,,,,,,,,,
1.37,-0.8294386564209952,0.8041590258362886,-2.4248785654685414,0.2294386564209953,0.7958409741637115,-2.3751214345314584,0.37056134357900467,0.8041590258362886,-2.4248785654685414,0.37056134357900467,0.7958409741637115,-2.3751214345314584,0.2294386564209953,0.8041590258362886,-2.4248785654685414,-0.8294386564209952,0.7958409741637115,-2.3751214345314584,,,,,,,,,,,,,,,,,,,,,,,,,,,,,,
1.3800000000000001,-0.8324441214720628,0.8104377669581565,-2.426228610260626,0.23244412147206286,0.7895622330418436,-2.3737713897393737,0.36755587852793714,0.8104377669581565,-2.426228610260626,0.36755587852793714,0.7895622330418436,-2.3737713897393737,0.23244412147206286,0.8104377669581565,-2.426228610260626,-0.8324441214720628,0.7895622330418436,-2.3737713897393737,,,,,,,,,,,,,,,,,,,,,,,,,,,,,,
1.3900000000000001,-0.8352201922385564,0.8167062072642035,-2.4275527705810025,0.23522019223855636,0.7832937927357966,-2.3724472294189973,0.3647798077614436,0.8167062072642035,-2.4275527705810025,0.3647798077614436,0.7832937927357966,-2.3724472294189973,0.23522019223855636,0.8167062072642035,-2.4275527705810025,-0.8352201922385564,0.7832937927357966,-2.3724472294189973,,,,,,,,,,,,,,,,,,,,,,,,,,,,,,
1.4000000000000001,-0.8377641290737884,0.8229581605606456,-2.4288497396433018,0.23776412907378838,0.7770418394393545,-2.371150260356698,0.36223587092621157,0.8229581605606456,-2.4288497396433018,0.36223587092621157,0.7770418394393545,-2.371150260356698,0.23776412907378838,0.8229581605606456,-2.4288497396433018,-0.8377641290737884,0.7770418394393545,-2.371150260356698,,,,,,,,,,,,,,,,,,,,,,,,,,,,,,
1.41,-0.8400734214192357,0.8291874569243867,-2.4301182374956443,0.24007342141923574,0.7708125430756134,-2.3698817625043556,0.35992657858076427,0.8291874569243867,-2.4301182374956443,0.35992657858076427,0.7708125430756134,-2.3698817625043556,0.24007342141923574,0.8291874569243867,-2.4301182374956443,-0.8400734214192357,0.7708125430756134,-2.3698817625043556,,,,,,,,,,,,,,,,,,,,,,,,,,,,,,
1.42,-0.8421457902821577,0.8353879487919879,-2.4313570122837973,0.24214579028215774,0.7646120512080122,-2.3686429877162025,0.3578542097178422,0.8353879487919879,-2.4313570122837973,0.3578542097178422,0.7646120512080122,-2.3686429877162025,0.24214579028215774,0.8353879487919879,-2.4313570122837973,-0.8421457902821577,0.7646120512080122,-2.3686429877162025,,,,,,,,,,,,,,,,,,,,,,,,,,,,,,
1.43,-0.8439791904846867,0.84155351702657,-2.432564841486604,0.2439791904846868,0.7584464829734301,-2.3674351585133957,0.3560208095153132,0.84155351702657,-2.432564841486604,0.3560208095153132,0.7584464829734301,-2.3674351585133957,0.2439791904846868,0.84155351702657,-2.432564841486604,-0.8439791904846867,0.7584464829734301,-2.3674351585133957,,,,,,,,,,,,,,,,,,,,,,,,,,,,,,
1.44,-0.8455718126821722,0.8476780769566642,-2.433740533122465,0.24557181268217218,0.7523219230433359,-2.3662594668775347,0.35442818731782777,0.8476780769566642,-2.433740533122465,0.35442818731782777,0.7523219230433359,-2.3662594668775347,0.24557181268217218,0.8476780769566642,-2.433740533122465,-0.8455718126821722,0.7523219230433359,-2.3662594668775347,,,,,,,,,,,,,,,,,,,,,,,,,,,,,,
1.45,-0.8469220851487844,0.8537555843810458,-2.434882926925678,0.24692208514878441,0.7462444156189543,-2.365117073074322,0.35307791485121554,0.8537555843810458,-2.434882926925678,0.35307791485121554,0.7462444156189543,-2.365117073074322,0.24692208514878441,0.8537555843810458,-2.434882926925678,-0.8469220851487844,0.7462444156189543,-2.365117073074322,,,,,,,,,,,,,,,,,,,,,,,,,,,,,,
1.46,-0.8480286753286195,0.8597800415336337,-2.4359908954914817,0.24802867532861944,0.7402199584663663,-2.364009104508518,0.35197132467138054,0.8597800415336337,-2.4359908954914817,0.35197132467138054,0.7402199584663663,-2.364009104508518,0.24802867532861944,0.8597800415336337,-2.4359908954914817,-0.8480286753286195,0.7402199584663663,-2.364009104508518,,,,,,,,,,,,,,,,,,,,,,,,,,,,,,
1.47,-0.84889049115077,0.8657455030025599,-2.437063345388669,0.24889049115077,0.7342544969974402,-2.362936654611331,0.35110950884923,0.8657455030025599,-2.437063345388669,0.35110950884923,0.7342544969974402,-2.362936654611331,0.24889049115077,0.8657455030025599,-2.437063345388669,-0.84889049115077,0.7342544969974402,-2.362936654611331,,,,,,,,,,,,,,,,,,,,,,,,,,,,,,
1.48,-0.8495066821070678,0.8716460815975734,-2.4380992182386696,0.2495066821070679,0.7283539184024267,-2.3619007817613302,0.3504933178929321,0.8716460815975734,-2.4380992182386696,0.3504933178929321,0.7283539184024267,-2.3619007817613302,0.2495066821070679,0.8716460815975734,-2.4380992182386696,-0.8495066821070678,0.7283539184024267,-2.3619007817613302,,,,,,,,,,,,,,,,,,,,,,,,,,,,,,
1.49,-0.8498766400914328,0.8774759541599862,-2.439097491760043,0.2498766400914329,0.7225240458400138,-2.3609025082399566,0.3501233599085671,0.8774759541599862,-2.439097491760043,0.3501233599085671,0.7225240458400138,-2.3609025082399566,0.2498766400914329,0.8774759541599862,-2.439097491760043,-0.8498766400914328,0.7225240458400138,-2.3609025082399566,,,,,,,,,,,,,,,,,,,,,,,,,,,,,,
1.5,-0.85,0.8832293673094285,-2.440057180777347,0.25,0.7167706326905716,-2.359942819222653,0.35,0.8832293673094285,-2.440057180777347,0.35,0.7167706326905716,-2.359942819222653,0.25,0.8832293673094285,-2.440057180777347,-0.85,0.7167706326905716,-2.359942819222653,,,,,,,,,,,,,,,,,,,,,,,,,,,,,,
1.51,-0.8498766400914328,0.8889006431217397,-2.440977338193385,0.2498766400914329,0.7110993568782604,-2.359022661806615,0.3501233599085671,0.8889006431217397,-2.440977338193385,0.3501233599085671,0.7110993568782604,-2.359022661806615,0.2498766400914329,0.8889006431217397,-2.440977338193385,-0.8498766400914328,0.7110993568782604,-2.359022661806615,,,,,,,,,,,,,,,,,,,,,,,,,,,,,,
1.52,-0.8495066821070678,0.8944841847323943,-2.4418570559238804,0.2495066821070679,0.7055158152676058,-2.3581429440761195,0.3504933178929321,0.8944841847323943,-2.4418570559238804,0.3504933178929321,0.7055158152676058,-2.3581429440761195,0.2495066821070679,0.8944841847323943,-2.4418570559238804,-0.8495066821070678,0.7055158152676058,-2.3581429440761195,,,,,,,,,,,,,,,,,,,,,,,,,,,,,,
1.53,-0.84889049115077,0.8999744818599321,-2.442695465793643,0.24889049115077,0.700025518140068,-2.357304534206357,0.35110950884923,0.8999744818599321,-2.442695465793643,0.35110950884923,0.700025518140068,-2.357304534206357,0.24889049115077,0.8999744818599321,-2.442695465793643,-0.84889049115077,0.700025518140068,-2.357304534206357,,,,,,,,,,,,,,,,,,,,,,,,,,,,,,
1.54,-0.8480286753286195,0.9053661162439395,-2.4434917403933527,0.24802867532861947,0.6946338837560606,-2.356508259606647,0.3519713246713805,0.9053661162439395,-2.4434917403933527,0.3519713246713805,0.6946338837560606,-2.356508259606647,0.24802867532861947,0.9053661162439395,-2.4434917403933527,-0.8480286753286195,0.6946338837560606,-2.356508259606647,,,,,,,,,,,,,,,,,,,,,,,,,,,,,,
