time,RPC,RPF,RPT,RMC,RMF,RMT,RAC,RAF,RAT,LPC,LPF,LPT,LMC,LMF,LMT,LAC,LAF,LAT,imu_roll,imu_pitch,imu_yaw,joint_sensor1,joint_sensor2,joint_sensor3,joint_sensor4,joint_sensor5,joint_sensor6,joint_sensor7,joint_sensor8,joint_sensor9,joint_sensor10,joint_sensor11,joint_sensor12,joint_sensor13,joint_sensor14,joint_sensor15,joint_sensor16,joint_sensor17,joint_sensor18,foot_contact1,foot_contact2,foot_contact3,foot_contact4,foot_contact5,foot_contact6,com_x,com_y,com_z
46.92,-0.5378275282087843,0.6031556628188259,-2.3610546821731573,-0.06217247179121561,0.9968443371811742,-2.4389453178268425,0.6621724717912156,0.6031556628188259,-2.3610546821731573,0.6621724717912156,0.9968443371811742,-2.4389453178268425,-0.06217247179121561,0.6031556628188259,-2.3610546821731573,-0.5378275282087843,0.9968443371811742,-2.4389453178268425,,,,,,,,,,,,,,,,,,,,,,,,,,,,,,
46.93,-0.5454641896508593,0.6043643559503461,-2.362058846894798,-0.05453581034914064,0.995635644049654,-2.4379411531052018,0.6545358103491407,0.6043643559503461,-2.362058846894798,0.6545358103491407,0.995635644049654,-2.4379411531052018,-0.05453581034914064,0.6043643559503461,-2.362058846894798,-0.5454641896508593,0.995635644049654,-2.4379411531052018,,,,,,,,,,,,,,,,,,,,,,,,,,,,,,
46.94,-0.5531546713535677,0.605766117843167,-2.3631004549538637,-0.04684532864643231,0.9942338821568331,-2.436899545046136,0.6468453286464323,0.605766117843167,-2.3631004549538637,0.6468453286464323,0.9942338821568331,-2.436899545046136,-0.04684532864643231,0.605766117843167,-2.3631004549538637,-0.5531546713535677,0.9942338821568331,-2.436899545046136,,,,,,,,,,,,,,,,,,,,,,,,,,,,,,
46.95,-0.560891383739945,0.6073595651275361,-2.3641784784089537,-0.03910861626005497,0.992640434872464,-2.435821521591046,0.639108616260055,0.6073595651275361,-2.3641784784089537,0.639108616260055,0.992640434872464,-2.435821521591046,-0.03910861626005497,0.6073595651275361,-2.3641784784089537,-0.560891383739945,0.992640434872464,-2.435821521591046,,,,,,,,,,,,,,,,,,,,,,,,,,,,,,
46.96,-0.5686666916089236,0.6091431252633612,-2.3652918533810685,-0.03133330839107643,0.9908568747366389,-2.4347081466189313,0.6313333083910764,0.6091431252633612,-2.3652918533810685,0.6313333083910764,0.9908568747366389,-2.4347081466189313,-0.03133330839107643,0.6091431252633612,-2.3652918533810685,-0.5686666916089236,0.9908568747366389,-2.4347081466189313,,,,,,,,,,,,,,,,,,,,,,,,,,,,,,
46.97,-0.5764729216703679,0.6111150380921215,-2.366439481103531,-0.02352707832963209,0.9888849619078786,-2.433560518896469,0.6235270783296321,0.6111150380921215,-2.366439481103531,0.6235270783296321,0.9888849619078786,-2.433560518896469,-0.02352707832963209,0.6111150380921215,-2.366439481103531,-0.5764729216703679,0.9888849619078786,-2.433560518896469,,,,,,,,,,,,,,,,,,,,,,,,,,,,,,
46.980000000000004,-0.584302370117672,0.613273357573929,-2.3676202290063344,-0.015697629882327917,0.9867266424260711,-2.4323797709936654,0.6156976298823279,0.613273357573929,-2.3676202290063344,0.6156976298823279,0.9867266424260711,-2.4323797709936654,-0.015697629882327917,0.613273357573929,-2.3676202290063344,-0.584302370117672,0.9867266424260711,-2.4323797709936654,,,,,,,,,,,,,,,,,,,,,,,,,,,,,,
46.99,-0.5921473102304652,0.6156159537080281,-2.368832931833851,-0.007852689769534798,0.984384046291972,-2.431167068166149,0.6078526897695348,0.6156159537080281,-2.368832931833851,0.6078526897695348,0.984384046291972,-2.431167068166149,-0.007852689769534798,0.6156159537080281,-2.368832931833851,-0.5921473102304652,0.984384046291972,-2.431167068166149,,,,,,,,,,,,,,,,,,,,,,,,,,,,,,
47.0,-0.6000000000000012,0.6181405146348641,-2.370076392794802,1.2255752701022357e-15,0.981859485365136,-2.4299236072051977,0.5999999999999988,0.6181405146348641,-2.370076392794802,0.5999999999999988,0.981859485365136,-2.4299236072051977,1.2255752701022357e-15,0.6181405146348641,-2.370076392794802,-0.6000000000000012,0.981859485365136,-2.4299236072051977,,,,,,,,,,,,,,,,,,,,,,,,,,,,,,
47.01,-0.6078526897695301,0.6208445489175913,-2.3713493847433433,0.007852689769530147,0.9791554510824088,-2.4286506152566565,0.5921473102304698,0.6208445489175913,-2.3713493847433433,0.5921473102304698,0.9791554510824088,-2.4286506152566565,0.007852689769530147,0.6208445489175913,-2.3713493847433433,-0.6078526897695301,0.9791554510824088,-2.4286506152566565,,,,,,,,,,,,,,,,,,,,,,,,,,,,,,
47.02,-0.6156976298823303,0.6237253880008398,-2.372650651390113,0.015697629882330363,0.9762746119991603,-2.4273493486098867,0.5843023701176696,0.6237253880008398,-2.372650651390113,0.5843023701176696,0.9762746119991603,-2.4273493486098867,0.015697629882330363,0.6237253880008398,-2.372650651390113,-0.6156976298823303,0.9762746119991603,-2.4273493486098867,,,,,,,,,,,,,,,,,,,,,,,,,,,,,,
47.03,-0.6235270783296274,0.6267801888442368,-2.373978908542033,0.023527078329627457,0.9732198111557633,-2.426021091457967,0.5764729216703726,0.6267801888442368,-2.373978908542033,0.5764729216703726,0.9732198111557633,-2.426021091457967,0.023527078329627457,0.6267801888442368,-2.373978908542033,-0.6235270783296274,0.9732198111557633,-2.426021091457967,,,,,,,,,,,,,,,,,,,,,,,,,,,,,,
47.04,-0.6313333083910718,0.6300059367281632,-2.375332845369657,0.03133330839107181,0.9699940632718369,-2.4246671546303427,0.5686666916089281,0.6300059367281632,-2.375332845369657,0.5686666916089281,0.9699940632718369,-2.4246671546303427,0.03133330839107181,0.6300059367281632,-2.375332845369657,-0.6313333083910718,0.9699940632718369,-2.4246671546303427,,,,,,,,,,,,,,,,,,,,,,,,,,,,,,
47.050000000000004,-0.6391086162600573,0.6333994482289099,-2.3767111257008016,0.03910861626005739,0.9666005517710902,-2.4232888742991983,0.5608913837399426,0.6333994482289099,-2.3767111257008016,0.5608913837399426,0.9666005517710902,-2.4232888742991983,0.03910861626005739,0.6333994482289099,-2.3767111257008016,-0.6391086162600573,0.9666005517710902,-2.4232888742991983,,,,,,,,,,,,,,,,,,,,,,,,,,,,,,
47.06,-0.6468453286464347,0.6369573743603266,-2.378112389339179,0.04684532864643472,0.9630426256396735,-2.421887610660821,0.5531546713535652,0.6369573743603266,-2.378112389339179,0.5531546713535652,0.9630426256396735,-2.421887610660821,0.04684532864643472,0.6369573743603266,-2.378112389339179,-0.6468453286464347,0.9630426256396735,-2.421887610660821,,,,,,,,,,,,,,,,,,,,,,,,,,,,,,
47.07,-0.6545358103491361,0.6406762038788716,-2.379535253406754,0.05453581034913609,0.9593237961211285,-2.420464746593246,0.5454641896508639,0.6406762038788716,-2.379535253406754,0.5454641896508639,0.9593237961211285,-2.420464746593246,0.05453581034913609,0.6406762038788716,-2.379535253406754,-0.6545358103491361,0.9593237961211285,-2.420464746593246,,,,,,,,,,,,,,,,,,,,,,,,,,,,,,
47.08,-0.6621724717912111,0.644552266748793,-2.380978313708478,0.0621724717912111,0.9554477332512071,-2.4190216862915217,0.5378275282087889,0.644552266748793,-2.380978313708478,0.5378275282087889,0.9554477332512071,-2.4190216862915217,0.0621724717912111,0.644552266748793,-2.380978313708478,-0.6621724717912111,0.9554477332512071,-2.4190216862915217,,,,,,,,,,,,,,,,,,,,,,,,,,,,,,
47.09,-0.6697477765098085,0.6485817377640045,-2.382440146118057,0.06974777650980853,0.9514182622359956,-2.4175598538819427,0.5302522234901914,0.6485817377640045,-2.382440146118057,0.5302522234901914,0.9514182622359956,-2.4175598538819427,0.06974777650980853,0.6485817377640045,-2.382440146118057,-0.6697477765098085,0.9514182622359956,-2.4175598538819427,,,,,,,,,,,,,,,,,,,,,,,,,,,,,,
47.1,-0.6772542485937351,0.6527606403230911,-2.383919307983389,0.07725424859373506,0.947239359676909,-2.4160806920166107,0.5227457514062649,0.6527606403230911,-2.383919307983389,0.5227457514062649,0.947239359676909,-2.4160806920166107,0.07725424859373506,0.6527606403230911,-2.383919307983389,-0.6772542485937351,0.947239359676909,-2.4160806920166107,,,,,,,,,,,,,,,,,,,,,,,,,,,,,,
47.11,-0.6846844800613181,0.6570848503537553,-2.3854143395502962,0.08468448006131811,0.9429151496462448,-2.4145856604497036,0.5153155199386819,0.6570848503537553,-2.3854143395502962,0.5153155199386819,0.9429151496462448,-2.4145856604497036,0.08468448006131811,0.6570848503537553,-2.3854143395502962,-0.6846844800613181,0.9429151496462448,-2.4145856604497036,,,,,,,,,,,,,,,,,,,,,,,,,,,,,,
47.12,-0.6920311381711685,0.6615501003827692,-2.3869237654031203,0.09203113817116848,0.9384498996172309,-2.4130762345968795,0.5079688618288315,0.6615501003827692,-2.3869237654031203,0.5079688618288315,0.9384498996172309,-2.4130762345968795,0.09203113817116848,0.6615501003827692,-2.3869237654031203,-0.6920311381711685,0.9384498996172309,-2.4130762345968795,,,,,,,,,,,,,,,,,,,,,,,,,,,,,,
47.13,-0.6992869726586978,0.6661519837474464,-2.388446095920779,0.09928697265869778,0.9338480162525536,-2.411553904079221,0.5007130273413022,0.6661519837474464,-2.388446095920779,0.5007130273413022,0.9338480162525536,-2.411553904079221,0.09928697265869778,0.6661519837474464,-2.388446095920779,-0.6992869726586978,0.9338480162525536,-2.411553904079221,,,,,,,,,,,,,,,,,,,,,,,,,,,,,,
47.14,-0.7064448228912679,0.670885958944494,-2.3899798287468426,0.1064448228912679,0.9291140410555061,-2.4100201712531573,0.4935551771087321,0.670885958944494,-2.3899798287468426,0.4935551771087321,0.9291140410555061,-2.4100201712531573,0.1064448228912679,0.670885958944494,-2.3899798287468426,-0.7064448228912679,0.9291140410555061,-2.4100201712531573,,,,,,,,,,,,,,,,,,,,,,,,,,,,,,
47.15,-0.7134976249348837,0.6757473541119361,-2.391523450272183,0.11349762493488363,0.924252645888064,-2.408476549727817,0.48650237506511634,0.6757473541119361,-2.391523450272183,0.48650237506511634,0.924252645888064,-2.408476549727817,0.11349762493488363,0.6757473541119361,-2.391523450272183,-0.7134976249348837,0.924252645888064,-2.408476549727817,,,,,,,,,,,,,,,,,,,,,,,,,,,,,,
47.160000000000004,-0.7204384185254292,0.6807313716396705,-2.39307543712872,0.12043841852542926,0.9192686283603296,-2.40692456287128,0.47956158147457073,0.6807313716396705,-2.39307543712872,0.47956158147457073,0.9192686283603296,-2.40692456287128,0.12043841852542926,0.6807313716396705,-2.39307543712872,-0.7204384185254292,0.9192686283603296,-2.40692456287128,,,,,,,,,,,,,,,,,,,,,,,,,,,,,,
47.17,-0.7272603539375906,0.685833092904116,-2.394634257692797,0.12726035393759055,0.9141669070958841,-2.405365742307203,0.4727396460624094,0.685833092904116,-2.394634257692797,0.4727396460624094,0.9141669070958841,-2.405365742307203,0.12726035393759055,0.685833092904116,-2.394634257692797,-0.7272603539375906,0.9141669070958841,-2.405365742307203,,,,,,,,,,,,,,,,,,,,,,,,,,,,,,
47.18,-0.7339566987447502,0.691047483122332,-2.3961983735967185,0.13395669874475025,0.9089525168776681,-2.4038016264032813,0.46604330125524973,0.691047483122332,-2.3961983735967185,0.46604330125524973,0.9089525168776681,-2.4038016264032813,0.13395669874475025,0.691047483122332,-2.3961983735967185,-0.7339566987447502,0.9089525168776681,-2.4038016264032813,,,,,,,,,,,,,,,,,,,,,,,,,,,,,,
47.19,-0.7405208444630311,0.6963693963207048,-2.3977662412469227,0.14052084446303112,0.9036306036792953,-2.402233758753077,0.45947915553696883,0.6963693963207048,-2.3977662412469227,0.45947915553696883,0.9036306036792953,-2.402233758753077,0.14052084446303112,0.6963693963207048,-2.3977662412469227,-0.7405208444630311,0.9036306036792953,-2.402233758753077,,,,,,,,,,,,,,,,,,,,,,,,,,,,,,
47.2,-0.74694631307312,0.7017935804134395,-2.3993363133473324,0.14694631307311998,0.8982064195865606,-2.4006636866526674,0.45305368692688,0.7017935804134395,-2.3993363133473324,0.45305368692688,0.8982064195865606,-2.4006636866526674,0.14694631307311998,0.7017935804134395,-2.3993363133473324,-0.74694631307312,0.8982064195865606,-2.4006636866526674,,,,,,,,,,,,,,,,,,,,,,,,,,,,,,
47.21,-0.7532267634132432,0.7073146823856965,-2.4009070404263397,0.1532267634132433,0.8926853176143036,-2.39909295957366,0.4467732365867567,0.7073146823856965,-2.4009070404263397,0.4467732365867567,0.8926853176143036,-2.39909295957366,0.1532267634132433,0.7073146823856965,-2.4009070404263397,-0.7532267634132432,0.8926853176143036,-2.39909295957366,,,,,,,,,,,,,,,,,,,,,,,,,,,,,,
47.22,-0.7593559974371692,0.7129272535764047,-2.4024768723659538,0.1593559974371692,0.8870727464235953,-2.397523127634046,0.44064400256283076,0.7129272535764047,-2.4024768723659538,0.44064400256283076,0.8870727464235953,-2.397523127634046,0.1593559974371692,0.7129272535764047,-2.4024768723659538,-0.7593559974371692,0.8870727464235953,-2.397523127634046,,,,,,,,,,,,,,,,,,,,,,,,,,,,,,
47.230000000000004,-0.7653279663309127,0.718625755055418,-2.404044259931581,0.1653279663309128,0.881374244944582,-2.395955740068419,0.4346720336690872,0.718625755055418,-2.404044259931581,0.4346720336690872,0.881374244944582,-2.395955740068419,0.1653279663309128,0.718625755055418,-2.404044259931581,-0.7653279663309127,0.881374244944582,-2.395955740068419,,,,,,,,,,,,,,,,,,,,,,,,,,,,,,
47.24,-0.7711367764821697,0.7244045630897549,-2.4056076563009237,0.17113677648216968,0.8755954369102452,-2.394392343699076,0.4288632235178303,0.7244045630897549,-2.4056076563009237,0.4288632235178303,0.8755954369102452,-2.394392343699076,0.17113677648216968,0.7244045630897549,-2.4056076563009237,-0.7711367764821697,0.8755954369102452,-2.394392343699076,,,,,,,,,,,,,,,,,,,,,,,,,,,,,,
47.25,-0.7767766952966373,0.7302579746935797,-2.4071655185905194,0.17677669529663725,0.8697420253064204,-2.3928344814094804,0.4232233047033627,0.7302579746935797,-2.4071655185905194,0.4232233047033627,0.8697420253064204,-2.3928344814094804,0.17677669529663725,0.7302579746935797,-2.4071655185905194,-0.7767766952966373,0.8697420253064204,-2.3928344814094804,,,,,,,,,,,,,,,,,,,,,,,,,,,,,,
47.26,-0.782242156855351,0.7361802132563199,-2.4087163093783683,0.18224215685535108,0.8638197867436802,-2.3912836906216315,0.4177578431446489,0.7361802132563199,-2.4087163093783683,0.4177578431446489,0.8638197867436802,-2.3912836906216315,0.18224215685535108,0.7361802132563199,-2.4087163093783683,-0.782242156855351,0.8638197867436802,-2.3912836906216315,,,,,,,,,,,,,,,,,,,,,,,,,,,,,,
47.27,-0.7875277674076158,0.7421654342435252,-2.4102584982211948,0.1875277674076158,0.8578345657564749,-2.389741501778805,0.4124722325923842,0.7421654342435252,-2.4102584982211948,0.4124722325923842,0.8578345657564749,-2.389741501778805,0.1875277674076158,0.7421654342435252,-2.4102584982211948,-0.7875277674076158,0.8578345657564749,-2.389741501778805,,,,,,,,,,,,,,,,,,,,,,,,,,,,,,
47.28,-0.7926283106939461,0.748207730964675,-2.411790563164799,0.19262831069394615,0.8517922690353251,-2.3882094368352007,0.40737168930605383,0.748207730964675,-2.411790563164799,0.40737168930605383,0.8517922690353251,-2.3882094368352007,0.19262831069394615,0.748207730964675,-2.411790563164799,-0.7926283106939461,0.8517922690353251,-2.3882094368352007,,,,,,,,,,,,,,,,,,,,,,,,,,,,,,
47.29,-0.7975387530939195,0.7543011404024063,-2.4133109922460516,0.19753875309391955,0.8456988595975938,-2.386689007753948,0.4024612469060804,0.7543011404024063,-2.4133109922460516,0.4024612469060804,0.8456988595975938,-2.386689007753948,0.19753875309391955,0.7543011404024063,-2.4133109922460516,-0.7975387530939195,0.8456988595975938,-2.386689007753948,,,,,,,,,,,,,,,,,,,,,,,,,,,,,,
47.300000000000004,-0.8022542485937363,0.7604396490972756,-2.4148182849850146,0.20225424859373625,0.8395603509027245,-2.385181715014985,0.3977457514062637,0.7604396490972756,-2.4148182849850146,0.3977457514062637,0.8395603509027245,-2.385181715014985,0.20225424859373625,0.7604396490972756,-2.4148182849850146,-0.8022542485937363,0.8395603509027245,-2.385181715014985,,,,,,,,,,,,,,,,,,,,,,,,,,,,,,
47.31,-0.8067701435686421,0.766617199082307,-2.41631095386573,0.20677014356864212,0.8333828009176931,-2.3836890461342697,0.3932298564313579,0.766617199082307,-2.41631095386573,0.3932298564313579,0.8333828009176931,-2.3836890461342697,0.20677014356864212,0.766617199082307,-2.41631095386573,-0.8067701435686421,0.8333828009176931,-2.3836890461342697,,,,,,,,,,,,,,,,,,,,,,,,,,,,,,
47.32,-0.8110819813755037,0.7728276938614841,-2.4177875258042247,0.21108198137550366,0.827172306138516,-2.382212474195775,0.3889180186244963,0.7728276938614841,-2.4177875258042247,0.3889180186244963,0.827172306138516,-2.382212474195775,0.21108198137550366,0.7728276938614841,-2.4177875258042247,-0.8110819813755037,0.827172306138516,-2.382212474195775,,,,,,,,,,,,,,,,,,,,,,,,,,,,,,
47.33,-0.8151855067509841,0.7790650044262677,-2.4192465436022643,0.2151855067509842,0.8209349955737324,-2.3807534563977355,0.3848144932490158,0.7790650044262677,-2.4192465436022643,0.3848144932490158,0.8209349955737324,-2.3807534563977355,0.2151855067509842,0.7790650044262677,-2.4192465436022643,-0.8151855067509841,0.8209349955737324,-2.3807534563977355,,,,,,,,,,,,,,,,,,,,,,,,,,,,,,
47.34,-0.8190766700109662,0.7853229753041755,-2.4206865673854328,0.21907667001096617,0.8146770246958246,-2.379313432614567,0.3809233299890338,0.7853229753041755,-2.4206865673854328,0.3809233299890338,0.8146770246958246,-2.379313432614567,0.21907667001096617,0.7853229753041755,-2.4206865673854328,-0.8190766700109662,0.8146770246958246,-2.379313432614567,,,,,,,,,,,,,,,,,,,,,,,,,,,,,,
47.35,-0.8227516310470908,0.7915954306334738,-2.4221061760241107,0.2227516310470908,0.8084045693665263,-2.377893823975889,0.37724836895290914,0.7915954306334738,-2.4221061760241107,0.37724836895290914,0.8084045693665263,-2.377893823975889,0.2227516310470908,0.7915954306334738,-2.4221061760241107,-0.8227516310470908,0.8084045693665263,-2.377893823975889,,,,,,,,,,,,,,,,,,,,,,,,,,,,,,
47.36,-0.8262067631165054,0.7978761802580465,-2.4235039685359645,0.22620676311650548,0.8021238197419536,-2.3764960314640353,0.37379323688349453,0.7978761802580465,-2.4235039685359645,0.37379323688349453,0.8021238197419536,-2.3764960314640353,0.22620676311650548,0.7978761802580465,-2.4235039685359645,-0.8262067631165054,0.8021238197419536,-2.3764960314640353,,,,,,,,,,,,,,,,,,,,,,,,,,,,,,
47.37,-0.8294386564209946,0.8041590258362871,-2.424878565468541,0.2294386564209946,0.795840974163713,-2.375121434531459,0.3705613435790054,0.8041590258362871,-2.424878565468541,0.3705613435790054,0.795840974163713,-2.375121434531459,0.2294386564209946,0.8041590258362871,-2.424878565468541,-0.8294386564209946,0.795840974163713,-2.375121434531459,,,,,,,,,,,,,,,,,,,,,,,,,,,,,,
47.38,-0.8324441214720637,0.8104377669581582,-2.4262286102606265,0.23244412147206367,0.7895622330418419,-2.3737713897393733,0.3675558785279363,0.8104377669581582,-2.4262286102606265,0.3675558785279363,0.7895622330418419,-2.3737713897393733,0.23244412147206367,0.8104377669581582,-2.4262286102606265,-0.8324441214720637,0.7895622330418419,-2.3737713897393733,,,,,,,,,,,,,,,,,,,,,,,,,,,,,,
47.39,-0.835220192238556,0.8167062072642027,-2.4275527705810025,0.23522019223855603,0.7832937927357974,-2.3724472294189973,0.3647798077614439,0.8167062072642027,-2.4275527705810025,0.3647798077614439,0.7832937927357974,-2.3724472294189973,0.23522019223855603,0.8167062072642027,-2.4275527705810025,-0.835220192238556,0.7832937927357974,-2.3724472294189973,,,,,,,,,,,,,,,,,,,,,,,,,,,,,,
47.4,-0.8377641290737872,0.8229581605606424,-2.428849739643301,0.23776412907378713,0.7770418394393577,-2.371150260356699,0.36223587092621284,0.8229581605606424,-2.428849739643301,0.36223587092621284,0.7770418394393577,-2.371150260356699,0.23776412907378713,0.8229581605606424,-2.428849739643301,-0.8377641290737872,0.7770418394393577,-2.371150260356699,,,,,,,,,,,,,,,,,,,,,,,,,,,,,,
47.410000000000004,-0.8400734214192357,0.8291874569243867,-2.4301182374956443,0.2400734214192357,0.7708125430756134,-2.3698817625043556,0.35992657858076427,0.8291874569243867,-2.4301182374956443,0.35992657858076427,0.7708125430756134,-2.3698817625043556,0.2400734214192357,0.8291874569243867,-2.4301182374956443,-0.8400734214192357,0.7708125430756134,-2.3698817625043556,,,,,,,,,,,,,,,,,,,,,,,,,,,,,,
47.42,-0.842145790282157,0.8353879487919853,-2.431357012283797,0.24214579028215696,0.7646120512080148,-2.368642987716203,0.357854209717843,0.8353879487919853,-2.431357012283797,0.357854209717843,0.7646120512080148,-2.368642987716203,0.24214579028215696,0.8353879487919853,-2.431357012283797,-0.842145790282157,0.7646120512080148,-2.368642987716203,,,,,,,,,,,,,,,,,,,,,,,,,,,,,,
47.43,-0.843979190484687,0.8415535170265707,-2.4325648414866046,0.243979190484687,0.7584464829734294,-2.3674351585133953,0.356020809515313,0.8415535170265707,-2.4325648414866046,0.356020809515313,0.7584464829734294,-2.3674351585133953,0.243979190484687,0.8415535170265707,-2.4325648414866046,-0.843979190484687,0.7584464829734294,-2.3674351585133953,,,,,,,,,,,,,,,,,,,,,,,,,,,,,,
47.44,-0.8455718126821716,0.8476780769566622,-2.4337405331224646,0.2455718126821717,0.7523219230433379,-2.366259466877535,0.35442818731782827,0.8476780769566622,-2.4337405331224646,0.35442818731782827,0.7523219230433379,-2.366259466877535,0.2455718126821717,0.8476780769566622,-2.4337405331224646,-0.8455718126821716,0.7523219230433379,-2.366259466877535,,,,,,,,,,,,,,,,,,,,,,,,,,,,,,
47.45,-0.8469220851487846,0.8537555843810469,-2.434882926925678,0.24692208514878466,0.7462444156189532,-2.365117073074322,0.3530779148512153,0.8537555843810469,-2.434882926925678,0.3530779148512153,0.7462444156189532,-2.365117073074322,0.24692208514878466,0.8537555843810469,-2.434882926925678,-0.8469220851487846,0.7462444156189532,-2.365117073074322,,,,,,,,,,,,,,,,,,,,,,,,,,,,,,
47.46,-0.8480286753286193,0.8597800415336325,-2.4359908954914813,0.24802867532861925,0.7402199584663676,-2.3640091045085185,0.3519713246713807,0.8597800415336325,-2.4359908954914813,0.3519713246713807,0.7402199584663676,-2.3640091045085185,0.24802867532861925,0.8597800415336325,-2.4359908954914813,-0.8480286753286193,0.7402199584663676,-2.3640091045085185,,,,,,,,,,,,,,,,,,,,,,,,,,,,,,
47.47,-0.8488904911507695,0.8657455030025564,-2.4370633453886685,0.24889049115076955,0.7342544969974437,-2.3629366546113313,0.3511095088492304,0.8657455030025564,-2.4370633453886685,0.3511095088492304,0.7342544969974437,-2.3629366546113313,0.24889049115076955,0.8657455030025564,-2.4370633453886685,-0.8488904911507695,0.7342544969974437,-2.3629366546113313,,,,,,,,,,,,,,,,,,,,,,,,,,,,,,
47.480000000000004,-0.8495066821070678,0.8716460815975727,-2.4380992182386696,0.24950668210706783,0.7283539184024274,-2.3619007817613302,0.35049331789293214,0.8716460815975727,-2.4380992182386696,0.35049331789293214,0.7283539184024274,-2.3619007817613302,0.24950668210706783,0.8716460815975727,-2.4380992182386696,-0.8495066821070678,0.7283539184024274,-2.3619007817613302,,,,,,,,,,,,,,,,,,,,,,,,,,,,,,
47.49,-0.8498766400914329,0.8774759541599885,-2.439097491760043,0.24987664009143298,0.7225240458400116,-2.3609025082399566,0.350123359908567,0.8774759541599885,-2.439097491760043,0.350123359908567,0.7225240458400116,-2.3609025082399566,0.24987664009143298,0.8774759541599885,-2.439097491760043,-0.8498766400914329,0.7225240458400116,-2.3609025082399566,,,,,,,,,,,,,,,,,,,,,,,,,,,,,,
47.5,-0.85,0.8832293673094285,-2.440057180777347,0.25,0.7167706326905716,-2.359942819222653,0.35,0.8832293673094285,-2.440057180777347,0.35,0.7167706326905716,-2.359942819222653,0.25,0.8832293673094285,-2.440057180777347,-0.85,0.7167706326905716,-2.359942819222653,,,,,,,,,,,,,,,,,,,,,,,,,,,,,,
47.51,-0.8498766400914329,0.8889006431217373,-2.4409773381933846,0.24987664009143298,0.7110993568782628,-2.3590226618066152,0.350123359908567,0.8889006431217373,-2.4409773381933846,0.350123359908567,0.7110993568782628,-2.3590226618066152,0.24987664009143298,0.8889006431217373,-2.4409773381933846,-0.8498766400914329,0.7110993568782628,-2.3590226618066152,,,,,,,,,,,,,,,,,,,,,,,,,,,,,,
47.52,-0.8495066821070678,0.8944841847323949,-2.441857055923881,0.24950668210706783,0.7055158152676052,-2.358142944076119,0.35049331789293214,0.8944841847323949,-2.441857055923881,0.35049331789293214,0.7055158152676052,-2.358142944076119,0.24950668210706783,0.8944841847323949,-2.441857055923881,-0.8495066821070678,0.7055158152676052,-2.358142944076119,,,,,,,,,,,,,,,,,,,,,,,,,,,,,,
47.53,-0.8488904911507702,0.8999744818599303,-2.4426954657936424,0.24889049115077025,0.7000255181400697,-2.3573045342063574,0.35110950884922976,0.8999744818599303,-2.4426954657936424,0.35110950884922976,0.7000255181400697,-2.3573045342063574,0.24889049115077025,0.8999744818599303,-2.4426954657936424,-0.8488904911507702,0.7000255181400697,-2.3573045342063574,,,,,,,,,,,,,,,,,,,,,,,,,,,,,,
47.54,-0.8480286753286201,0.9053661162439356,-2.4434917403933523,0.24802867532862016,0.6946338837560645,-2.3565082596066476,0.3519713246713798,0.9053661162439356,-2.4434917403933523,0.3519713246713798,0.6946338837560645,-2.3565082596066476,0.24802867532862016,0.9053661162439356,-2.4434917403933523,-0.8480286753286201,0.6946338837560645,-2.3565082596066476,,,,,,,,,,,,,,,,,,,,,,,,,,,,,,
47.550000000000004,-0.8469220851487835,0.9106537669922231,-2.4442450938961167,0.24692208514878358,0.689346233007777,-2.355754906103883,0.3530779148512164,0.9106537669922231,-2.4442450938961167,0.3530779148512164,0.689346233007777,-2.355754906103883,0.24692208514878358,0.9106537669922231,-2.4442450938961167,-0.8469220851487835,0.689346233007777,-2.355754906103883,,,,,,,,,,,,,,,,,,,,,,,,,,,,,,
47.56,-0.8455718126821717,0.9158322158318708,-2.444954782832979,0.24557181268217174,0.6841677841681293,-2.355045217167021,0.3544281873178282,0.9158322158318708,-2.444954782832979,0.3544281873178282,0.6841677841681293,-2.355045217167021,0.24557181268217174,0.9158322158318708,-2.444954782832979,-0.8455718126821717,0.6841677841681293,-2.355045217167021,,,,,,,,,,,,,,,,,,,,,,,,,,,,,,
47.57,-0.8439791904846871,0.9208963522590855,-2.4456201068266417,0.24397919048468705,0.6791036477409146,-2.354379893173358,0.3560208095153129,0.9208963522590855,-2.4456201068266417,0.3560208095153129,0.6791036477409146,-2.354379893173358,0.24397919048468705,0.9208963522590855,-2.4456201068266417,-0.8439791904846871,0.6791036477409146,-2.354379893173358,,,,,,,,,,,,,,,,,,,,,,,,,,,,,,
47.58,-0.8421457902821587,0.925841178582614,-2.446240409282649,0.2421457902821588,0.674158821417386,-2.3537595907173507,0.3578542097178412,0.925841178582614,-2.446240409282649,0.3578542097178412,0.674158821417386,-2.3537595907173507,0.2421457902821588,0.925841178582614,-2.446240409282649,-0.8421457902821587,0.674158821417386,-2.3537595907173507,,,,,,,,,,,,,,,,,,,,,,,,,,,,,,
47.59,-0.8400734214192358,0.9306618148558756,-2.446815078037367,0.2400734214192358,0.6693381851441245,-2.3531849219626326,0.35992657858076416,0.9306618148558756,-2.446815078037367,0.35992657858076416,0.6693381851441245,-2.3531849219626326,0.2400734214192358,0.9306618148558756,-2.446815078037367,-0.8400734214192358,0.6693381851441245,-2.3531849219626326,,,,,,,,,,,,,,,,,,,,,,,,,,,,,,
47.6,-0.8377641290737894,0.9353535036928621,-2.447343545962115,0.23776412907378938,0.664646496307138,-2.3526564540378847,0.36223587092621057,0.9353535036928621,-2.447343545962115,0.36223587092621057,0.664646496307138,-2.3526564540378847,0.23776412907378938,0.9353535036928621,-2.447343545962115,-0.8377641290737894,0.664646496307138,-2.3526564540378847,,,,,,,,,,,,,,,,,,,,,,,,,,,,,,
47.61,-0.835220192238556,0.9399116149631345,-2.447825291522854,0.23522019223855611,0.6600883850368656,-2.3521747084771456,0.36477980776144386,0.9399116149631345,-2.447825291522854,0.36477980776144386,0.6600883850368656,-2.3521747084771456,0.23522019223855611,0.9399116149631345,-2.447825291522854,-0.835220192238556,0.6600883850368656,-2.3521747084771456,,,,,,,,,,,,,,,,,,,,,,,,,,,,,,
47.62,-0.8324441214720637,0.9443316503611682,-2.448259839294877,0.23244412147206375,0.6556683496388319,-2.351740160705123,0.36755587852793625,0.9443316503611682,-2.448259839294877,0.36755587852793625,0.6556683496388319,-2.351740160705123,0.23244412147206375,0.9443316503611682,-2.448259839294877,-0.8324441214720637,0.6556683496388319,-2.351740160705123,,,,,,,,,,,,,,,,,,,,,,,,,,,,,,
47.63,-0.8294386564209947,0.9486092478456707,-2.4486467604319975,0.22943865642099467,0.6513907521543294,-2.3513532395680024,0.3705613435790053,0.9486092478456707,-2.4486467604319975,0.3705613435790053,0.6513907521543294,-2.3513532395680024,0.22943865642099467,0.9486092478456707,-2.4486467604319975,-0.8294386564209947,0.6513907521543294,-2.3513532395680024,,,,,,,,,,,,,,,,,,,,,,,,,,,,,,
47.64,-0.8262067631165055,0.9527401859443575,-2.4489856730897657,0.2262067631165056,0.6472598140556426,-2.351014326910234,0.3737932368834944,0.9527401859443575,-2.4489856730897657,0.3737932368834944,0.6472598140556426,-2.351014326910234,0.2262067631165056,0.9527401859443575,-2.4489856730897657,-0.8262067631165055,0.6472598140556426,-2.351014326910234,,,,,,,,,,,,,,,,,,,,,,,,,,,,,,
47.65,-0.8227516310470941,0.9567203879200635,-2.449276242802306,0.22275163104709414,0.6432796120799366,-2.3507237571976938,0.3772483689529058,0.9567203879200635,-2.449276242802306,0.3772483689529058,0.6432796120799366,-2.3507237571976938,0.22275163104709414,0.9567203879200635,-2.449276242802306,-0.8227516310470941,0.6432796120799366,-2.3507237571976938,,,,,,,,,,,,,,,,,,,,,,,,,,,,,,
47.660000000000004,-0.8190766700109663,0.9605459257939777,-2.449518182812394,0.2190766700109663,0.6394540742060224,-2.350481817187606,0.38092332998903367,0.9605459257939777,-2.449518182812394,0.38092332998903367,0.6394540742060224,-2.350481817187606,0.2190766700109663,0.9605459257939777,-2.449518182812394,-0.8190766700109663,0.6394540742060224,-2.350481817187606,,,,,,,,,,,,,,,,,,,,,,,,,,,,,,
47.67,-0.8151855067509843,0.9642130242220777,-2.449711254354449,0.21518550675098433,0.6357869757779224,-2.350288745645551,0.3848144932490156,0.9642130242220777,-2.449711254354449,0.3848144932490156,0.6357869757779224,-2.350288745645551,0.21518550675098433,0.9642130242220777,-2.449711254354449,-0.8151855067509843,0.6357869757779224,-2.350288745645551,,,,,,,,,,,,,,,,,,,,,,,,,,,,,,
47.68,-0.8110819813755038,0.9677180642209458,-2.4498552668901676,0.2110819813755038,0.6322819357790543,-2.350144733109832,0.38891801862449615,0.9677180642209458,-2.4498552668901676,0.38891801862449615,0.6322819357790543,-2.350144733109832,0.2110819813755038,0.9677180642209458,-2.4498552668901676,-0.8110819813755038,0.6322819357790543,-2.350144733109832,,,,,,,,,,,,,,,,,,,,,,,,,,,,,,
47.69,-0.8067701435686423,0.9710575867392752,-2.4499500782965655,0.20677014356864226,0.6289424132607249,-2.3500499217034343,0.3932298564313577,0.9710575867392752,-2.4499500782965655,0.3932298564313577,0.6289424132607249,-2.3500499217034343,0.20677014356864226,0.9710575867392752,-2.4499500782965655,-0.8067701435686423,0.6289424132607249,-2.3500499217034343,,,,,,,,,,,,,,,,,,,,,,,,,,,,,,
47.7,-0.8022542485937364,0.9742282960715287,-2.449995595006231,0.20225424859373642,0.6257717039284714,-2.350004404993769,0.39774575140626356,0.9742282960715287,-2.449995595006231,0.39774575140626356,0.6257717039284714,-2.350004404993769,0.20225424859373642,0.9742282960715287,-2.449995595006231,-0.8022542485937364,0.6257717039284714,-2.350004404993769,,,,,,,,,,,,,,,,,,,,,,,,,,,,,,
47.71,-0.7975387530939241,0.9772270631103939,-2.4499917720996662,0.19753875309392407,0.6227729368896062,-2.3500082279003336,0.4024612469060759,0.9772270631103939,-2.4499917720996662,0.4024612469060759,0.6227729368896062,-2.3500082279003336,0.19753875309392407,0.9772270631103939,-2.4499917720996662,-0.7975387530939241,0.6227729368896062,-2.3500082279003336,,,,,,,,,,,,,,,,,,,,,,,,,,,,,,
47.72,-0.7926283106939508,0.9800509284348518,-2.449938613349619,0.19262831069395084,0.6199490715651483,-2.350061386650381,0.40737168930604917,0.9800509284348518,-2.449938613349619,0.40737168930604917,0.6199490715651483,-2.350061386650381,0.19262831069395084,0.9800509284348518,-2.449938613349619,-0.7926283106939508,0.6199490715651483,-2.350061386650381,,,,,,,,,,,,,,,,,,,,,,,,,,,,,,
47.730000000000004,-0.787527767407616,0.982697105230759,-2.449836171217358,0.18752776740761595,0.617302894769241,-2.350163828782642,0.412472232592384,0.982697105230759,-2.449836171217358,0.412472232592384,0.617302894769241,-2.350163828782642,0.18752776740761595,0.982697105230759,-2.449836171217358,-0.787527767407616,0.617302894769241,-2.350163828782642,,,,,,,,,,,,,,,,,,,,,,,,,,,,,,
47.74,-0.7822421568553513,0.9851629820410921,-2.4496845468008988,0.18224215685535125,0.614837017958908,-2.350315453199101,0.4177578431446487,0.9851629820410921,-2.4496845468008988,0.4177578431446487,0.614837017958908,-2.350315453199101,0.18224215685535125,0.9851629820410921,-2.4496845468008988,-0.7822421568553513,0.614837017958908,-2.350315453199101,,,,,,,,,,,,,,,,,,,,,,,,,,,,,,
47.75,-0.7767766952966374,0.9874461253431462,-2.449483889735235,0.17677669529663745,0.6125538746568538,-2.3505161102647647,0.42322330470336256,0.9874461253431462,-2.449483889735235,0.42322330470336256,0.6125538746568538,-2.3505161102647647,0.17677669529663745,0.9874461253431462,-2.449483889735235,-0.7767766952966374,0.6125538746568538,-2.3505161102647647,,,,,,,,,,,,,,,,,,,,,,,,,,,,,,
47.76,-0.771136776482175,0.9895442819501319,-2.4492343980446654,0.17113677648217504,0.6104557180498682,-2.3507656019553345,0.4288632235178249,0.9895442819501319,-2.4492343980446654,0.4288632235178249,0.6104557180498682,-2.3507656019553345,0.17113677648217504,0.9895442819501319,-2.4492343980446654,-0.771136776482175,0.6104557180498682,-2.3507656019553345,,,,,,,,,,,,,,,,,,,,,,,,,,,,,,
47.77,-0.7653279663309129,0.9914553812347929,-2.4489363179473664,0.16532796633091296,0.6085446187652072,-2.3510636820526334,0.434672033669087,0.9914553812347929,-2.4489363179473664,0.434672033669087,0.6085446187652072,-2.3510636820526334,0.16532796633091296,0.9914553812347929,-2.4489363179473664,-0.7653279663309129,0.6085446187652072,-2.3510636820526334,,,,,,,,,,,,,,,,,,,,,,,,,,,,,,
47.78,-0.7593559974371749,0.9931775371728618,-2.448589943612407,0.15935599743717485,0.6068224628271383,-2.351410056387593,0.4406440025628251,0.9931775371728618,-2.448589943612407,0.4406440025628251,0.6068224628271383,-2.351410056387593,0.15935599743717485,0.9931775371728618,-2.448589943612407,-0.7593559974371749,0.6068224628271383,-2.351410056387593,,,,,,,,,,,,,,,,,,,,,,,,,,,,,,
47.79,-0.7532267634132435,0.9947090502043494,-2.4481956168694365,0.15322676341324348,0.6052909497956507,-2.3518043831305633,0.4467732365867565,0.9947090502043494,-2.4481956168694365,0.4467732365867565,0.6052909497956507,-2.3518043831305633,0.15322676341324348,0.9947090502043494,-2.4481956168694365,-0.7532267634132435,0.6052909497956507,-2.3518043831305633,,,,,,,,,,,,,,,,,,,,,,,,,,,,,,
47.800000000000004,-0.7469463130731144,0.9960484089107935,-2.447753726871343,0.14694631307311443,0.6039515910892066,-2.3522462731286566,0.4530536869268855,0.9960484089107935,-2.447753726871343,0.4530536869268855,0.6039515910892066,-2.3522462731286566,0.14694631307311443,0.9960484089107935,-2.447753726871343,-0.7469463130731144,0.6039515910892066,-2.3522462731286566,,,,,,,,,,,,,,,,,,,,,,,,,,,,,,
47.81,-0.7405208444630313,0.9971942915068528,-2.447264709710206,0.1405208444630313,0.6028057084931473,-2.352735290289794,0.45947915553696866,0.9971942915068528,-2.447264709710206,0.45947915553696866,0.6028057084931473,-2.352735290289794,0.1405208444630313,0.9971942915068528,-2.447264709710206,-0.7405208444630313,0.6028057084931473,-2.352735290289794,,,,,,,,,,,,,,,,,,,,,,,,,,,,,,
47.82,-0.7339566987447504,0.9981455671447502,-2.446729047986922,0.13395669874475047,0.6018544328552499,-2.353270952013078,0.4660433012552495,0.9981455671447502,-2.446729047986922,0.4660433012552495,0.6018544328552499,-2.353270952013078,0.13395669874475047,0.9981455671447502,-2.446729047986922,-0.7339566987447504,0.6018544328552499,-2.353270952013078,,,,,,,,,,,,,,,,,,,,,,,,,,,,,,
47.83,-0.7272603539375968,0.9989012970302803,-2.4461472703349414,0.12726035393759688,0.6010987029697198,-2.3538527296650584,0.4727396460624031,0.9989012970302803,-2.4461472703349414,0.4727396460624031,0.6010987029697198,-2.3538527296650584,0.12726035393759688,0.9989012970302803,-2.4461472703349414,-0.7272603539375968,0.6010987029697198,-2.3538527296650584,,,,,,,,,,,,,,,,,,,,,,,,,,,,,,
47.84,-0.7204384185254294,0.9994607353492866,-2.445519950898567,0.12043841852542948,0.6005392646507135,-2.354480049101433,0.4795615814745705,0.9994607353492866,-2.445519950898567,0.4795615814745705,0.6005392646507135,-2.354480049101433,0.12043841852542948,0.9994607353492866,-2.445519950898567,-0.7204384185254294,0.6005392646507135,-2.354480049101433,,,,,,,,,,,,,,,,,,,,,,,,,,,,,,
47.85,-0.7134976249348838,0.9998233300036894,-2.444847708766346,0.11349762493488384,0.6001766699963107,-2.355152291233654,0.4865023750651161,0.9998233300036894,-2.444847708766346,0.4865023750651161,0.6001766699963107,-2.355152291233654,0.11349762493488384,0.9998233300036894,-2.444847708766346,-0.7134976249348838,0.6001766699963107,-2.355152291233654,,,,,,,,,,,,,,,,,,,,,,,,,,,,,,
47.86,-0.7064448228912681,0.9999887231563412,-2.444131207360103,0.10644482289126812,0.6000112768436588,-2.355868792639897,0.49355517710873187,0.9999887231563412,-2.444131207360103,0.49355517710873187,0.6000112768436588,-2.355868792639897,0.10644482289126812,0.9999887231563412,-2.444131207360103,-0.7064448228912681,0.6000112768436588,-2.355868792639897,,,,,,,,,,,,,,,,,,,,,,,,,,,,,,
47.870000000000005,-0.6992869726586914,0.999956751584169,-2.4433711537802196,0.09928697265869149,0.6000432484158311,-2.35662884621978,0.5007130273413085,0.999956751584169,-2.4433711537802196,0.5007130273413085,0.6000432484158311,-2.35662884621978,0.09928697265869149,0.999956751584169,-2.4433711537802196,-0.6992869726586914,0.6000432484158311,-2.35662884621978,,,,,,,,,,,,,,,,,,,,,,,,,,,,,,
47.88,-0.6920311381711687,0.9997274468392545,-2.442568298107819,0.0920311381711687,0.6002725531607456,-2.357431701892181,0.5079688618288313,0.9997274468392545,-2.442568298107819,0.5079688618288313,0.6002725531607456,-2.357431701892181,0.0920311381711687,0.9997274468392545,-2.442568298107819,-0.6920311381711687,0.6002725531607456,-2.357431701892181,,,,,,,,,,,,,,,,,,,,,,,,,,,,,,
47.89,-0.684684480061325,0.9993010352176966,-2.441723432664519,0.08468448006132502,0.6006989647823034,-2.358276567335481,0.515315519938675,0.9993010352176966,-2.441723432664519,0.515315519938675,0.6006989647823034,-2.358276567335481,0.08468448006132502,0.9993010352176966,-2.441723432664519,-0.684684480061325,0.6006989647823034,-2.358276567335481,,,,,,,,,,,,,,,,,,,,,,,,,,,,,,
47.9,-0.6772542485937421,0.9986779375362846,-2.4408373912305104,0.07725424859374205,0.6013220624637154,-2.3591626087694895,0.5227457514062579,0.9986779375362846,-2.4408373912305104,0.5227457514062579,0.6013220624637154,-2.3591626087694895,0.07725424859374205,0.9986779375362846,-2.4408373912305104,-0.6772542485937421,0.6013220624637154,-2.3591626087694895,,,,,,,,,,,,,,,,,,,,,,,,,,,,,,
47.910000000000004,-0.6697477765098088,0.9978587687172018,-2.439911048221714,0.06974777650980876,0.6021412312827983,-2.3600889517782857,0.5302522234901912,0.9978587687172018,-2.439911048221714,0.5302522234901912,0.6021412312827983,-2.3600889517782857,0.06974777650980876,0.9978587687172018,-2.439911048221714,-0.6697477765098088,0.6021412312827983,-2.3600889517782857,,,,,,,,,,,,,,,,,,,,,,,,,,,,,,
47.92,-0.6621724717912113,0.9968443371811735,-2.438945317826842,0.06217247179121133,0.6031556628188266,-2.3610546821731577,0.5378275282087887,0.9968443371811735,-2.438945317826842,0.5378275282087887,0.6031556628188266,-2.3610546821731577,0.06217247179121133,0.9968443371811735,-2.438945317826842,-0.6621724717912113,0.6031556628188266,-2.3610546821731577,,,,,,,,,,,,,,,,,,,,,,,,,,,,,,
47.93,-0.6545358103491363,0.9956356440496532,-2.4379411531052013,0.054535810349136335,0.6043643559503469,-2.3620588468947985,0.5454641896508636,0.9956356440496532,-2.4379411531052013,0.5454641896508636,0.6043643559503469,-2.3620588468947985,0.054535810349136335,0.9956356440496532,-2.4379411531052013,-0.6545358103491363,0.6043643559503469,-2.3620588468947985,,,,,,,,,,,,,,,,,,,,,,,,,,,,,,
47.94,-0.646845328646435,0.9942338821568336,-2.4368995450461366,0.04684532864643495,0.6057661178431665,-2.3631004549538632,0.553154671353565,0.9942338821568336,-2.4368995450461366,0.553154671353565,0.6057661178431665,-2.3631004549538632,0.04684532864643495,0.9942338821568336,-2.4368995450461366,-0.646845328646435,0.6057661178431665,-2.3631004549538632,,,,,,,,,,,,,,,,,,,,,,,,,,,,,,
47.95,-0.6391086162600577,0.9926404348724647,-2.4358215215910466,0.039108616260057634,0.6073595651275354,-2.3641784784089532,0.5608913837399423,0.9926404348724647,-2.4358215215910466,0.5608913837399423,0.6073595651275354,-2.3641784784089532,0.039108616260057634,0.9926404348724647,-2.4358215215910466,-0.6391086162600577,0.6073595651275354,-2.3641784784089532,,,,,,,,,,,,,,,,,,,,,,,,,,,,,,
47.96,-0.631333308391079,0.9908568747366395,-2.4347081466189318,0.031333308391079104,0.6091431252633606,-2.365291853381068,0.5686666916089209,0.9908568747366395,-2.4347081466189318,0.5686666916089209,0.6091431252633606,-2.365291853381068,0.031333308391079104,0.9908568747366395,-2.4347081466189318,-0.631333308391079,0.6091431252633606,-2.365291853381068,,,,,,,,,,,,,,,,,,,,,,,,,,,,,,
47.97,-0.6235270783296277,0.9888849619078774,-2.4335605188964684,0.0235270783296277,0.6111150380921226,-2.3664394811035314,0.5764729216703722,0.9888849619078774,-2.4335605188964684,0.5764729216703722,0.6111150380921226,-2.3664394811035314,0.0235270783296277,0.9888849619078774,-2.4335605188964684,-0.6235270783296277,0.6111150380921226,-2.3664394811035314,,,,,,,,,,,,,,,,,,,,,,,,,,,,,,
47.980000000000004,-0.6156976298823235,0.9867266424260699,-2.4323797709936645,0.015697629882323517,0.6132733575739302,-2.3676202290063353,0.5843023701176765,0.9867266424260699,-2.4323797709936645,0.5843023701176765,0.6132733575739302,-2.3676202290063353,0.015697629882323517,0.9867266424260699,-2.4323797709936645,-0.6156976298823235,0.6132733575739302,-2.3676202290063353,,,,,,,,,,,,,,,,,,,,,,,,,,,,,,
47.99,-0.6078526897695303,0.9843840462919705,-2.4311670681661486,0.00785268976953039,0.6156159537080296,-2.3688329318338512,0.5921473102304696,0.9843840462919705,-2.4311670681661486,0.5921473102304696,0.6156159537080296,-2.3688329318338512,0.00785268976953039,0.9843840462919705,-2.4311670681661486,-0.6078526897695303,0.6156159537080296,-2.3688329318338512,,,,,,,,,,,,,,,,,,,,,,,,,,,,,,
48.0,-0.6000000000000014,0.9818594853651369,-2.429923607205198,1.4695761589768238e-15,0.6181405146348632,-2.3700763927948016,0.5999999999999985,0.9818594853651369,-2.429923607205198,0.5999999999999985,0.6181405146348632,-2.3700763927948016,1.4695761589768238e-15,0.9818594853651369,-2.429923607205198,-0.6000000000000014,0.6181405146348632,-2.3700763927948016,,,,,,,,,,,,,,,,,,,,,,,,,,,,,,
48.01,-0.5921473102304725,0.9791554510824098,-2.428650615256657,-0.007852689769527453,0.6208445489175903,-2.371349384743343,0.6078526897695274,0.9791554510824098,-2.428650615256657,0.6078526897695274,0.6208445489175903,-2.371349384743343,-0.007852689769527453,0.9791554510824098,-2.428650615256657,-0.5921473102304725,0.6208445489175903,-2.371349384743343,,,,,,,,,,,,,,,,,,,,,,,,,,,,,,
48.02,-0.5843023701176723,0.9762746119991614,-2.427349348609887,-0.015697629882327674,0.6237253880008387,-2.3726506513901127,0.6156976298823277,0.9762746119991614,-2.427349348609887,0.6156976298823277,0.6237253880008387,-2.3726506513901127,-0.015697629882327674,0.9762746119991614,-2.427349348609887,-0.5843023701176723,0.6237253880008387,-2.3726506513901127,,,,,,,,,,,,,,,,,,,,,,,,,,,,,,
48.03,-0.5764729216703752,0.9732198111557644,-2.4260210914579674,-0.023527078329624772,0.6267801888442357,-2.3739789085420324,0.6235270783296247,0.9732198111557644,-2.4260210914579674,0.6235270783296247,0.6267801888442357,-2.3739789085420324,-0.023527078329624772,0.9732198111557644,-2.4260210914579674,-0.5764729216703752,0.6267801888442357,-2.3739789085420324,,,,,,,,,,,,,,,,,,,,,,,,,,,,,,
48.04,-0.5686666916089238,0.969994063271835,-2.4246671546303418,-0.03133330839107619,0.6300059367281651,-2.375332845369658,0.6313333083910762,0.969994063271835,-2.4246671546303418,0.6313333083910762,0.6300059367281651,-2.375332845369658,-0.03133330839107619,0.969994063271835,-2.4246671546303418,-0.5686666916089238,0.6300059367281651,-2.375332845369658,,,,,,,,,,,,,,,,,,,,,,,,,,,,,,
48.050000000000004,-0.5608913837399382,0.9666005517710882,-2.423288874299198,-0.03910861626006175,0.6333994482289119,-2.376711125700802,0.6391086162600618,0.9666005517710882,-2.423288874299198,0.6391086162600618,0.6333994482289119,-2.376711125700802,-0.03910861626006175,0.9666005517710882,-2.423288874299198,-0.5608913837399382,0.6333994482289119,-2.376711125700802,,,,,,,,,,,,,,,,,,,,,,,,,,,,,,
48.06,-0.5531546713535679,0.9630426256396747,-2.4218876106608214,-0.046845328646432066,0.6369573743603254,-2.3781123893391785,0.6468453286464321,0.9630426256396747,-2.4218876106608214,0.6468453286464321,0.6369573743603254,-2.3781123893391785,-0.046845328646432066,0.9630426256396747,-2.4218876106608214,-0.5531546713535679,0.6369573743603254,-2.3781123893391785,,,,,,,,,,,,,,,,,,,,,,,,,,,,,,
48.07,-0.5454641896508665,0.9593237961211298,-2.4204647465932463,-0.05453581034913346,0.6406762038788703,-2.3795352534067535,0.6545358103491334,0.9593237961211298,-2.4204647465932463,0.6545358103491334,0.6406762038788703,-2.3795352534067535,-0.05453581034913346,0.9593237961211298,-2.4204647465932463,-0.5454641896508665,0.6406762038788703,-2.3795352534067535,,,,,,,,,,,,,,,,,,,,,,,,,,,,,,
48.08,-0.5378275282087915,0.9554477332512086,-2.419021686291522,-0.06217247179120849,0.6445522667487915,-2.3809783137084777,0.6621724717912084,0.9554477332512086,-2.419021686291522,0.6621724717912084,0.6445522667487915,-2.3809783137084777,-0.06217247179120849,0.9554477332512086,-2.419021686291522,-0.5378275282087915,0.6445522667487915,-2.3809783137084777,,,,,,,,,,,,,,,,,,,,,,,,,,,,,,
48.09,-0.5302522234901941,0.9514182622359969,-2.4175598538819436,-0.06974777650980594,0.6485817377640032,-2.382440146118056,0.6697477765098059,0.9514182622359969,-2.4175598538819436,0.6697477765098059,0.6485817377640032,-2.382440146118056,-0.06974777650980594,0.9514182622359969,-2.4175598538819436,-0.5302522234901941,0.6485817377640032,-2.382440146118056,,,,,,,,,,,,,,,,,,,,,,,,,,,,,,
48.1,-0.5227457514062608,0.9472393596769066,-2.41608069201661,-0.07725424859373925,0.6527606403230934,-2.38391930798339,0.6772542485937392,0.9472393596769066,-2.41608069201661,0.6772542485937392,0.6527606403230934,-2.38391930798339,-0.07725424859373925,0.9472393596769066,-2.41608069201661,-0.5227457514062608,0.6527606403230934,-2.38391930798339,,,,,,,,,,,,,,,,,,,,,,,,,,,,,,
48.11,-0.5153155199386777,0.9429151496462423,-2.4145856604497027,-0.08468448006132226,0.6570848503537577,-2.385414339550297,0.6846844800613222,0.9429151496462423,-2.4145856604497027,0.6846844800613222,0.6570848503537577,-2.385414339550297,-0.08468448006132226,0.9429151496462423,-2.4145856604497027,-0.5153155199386777,0.6570848503537577,-2.385414339550297,,,,,,,,,,,,,,,,,,,,,,,,,,,,,,
48.120000000000005,-0.5079688618288274,0.9384498996172284,-2.4130762345968786,-0.09203113817117257,0.6615501003827717,-2.3869237654031212,0.6920311381711726,0.9384498996172284,-2.4130762345968786,0.6920311381711726,0.6615501003827717,-2.3869237654031212,-0.09203113817117257,0.9384498996172284,-2.4130762345968786,-0.5079688618288274,0.6615501003827717,-2.3869237654031212,,,,,,,,,,,,,,,,,,,,,,,,,,,,,,
48.13,-0.5007130273413046,0.9338480162525552,-2.4115539040792213,-0.09928697265869531,0.6661519837474449,-2.3884460959207785,0.6992869726586953,0.9338480162525552,-2.4115539040792213,0.6992869726586953,0.6661519837474449,-2.3884460959207785,-0.09928697265869531,0.9338480162525552,-2.4115539040792213,-0.5007130273413046,0.6661519837474449,-2.3884460959207785,,,,,,,,,,,,,,,,,,,,,,,,,,,,,,
48.14,-0.49355517710873453,0.9291140410555078,-2.4100201712531577,-0.10644482289126546,0.6708859589444923,-2.389979828746842,0.7064448228912654,0.9291140410555078,-2.4100201712531577,0.7064448228912654,0.6708859589444923,-2.389979828746842,-0.10644482289126546,0.9291140410555078,-2.4100201712531577,-0.49355517710873453,0.6708859589444923,-2.389979828746842,,,,,,,,,,,,,,,,,,,,,,,,,,,,,,
48.15,-0.48650237506511873,0.9242526458880657,-2.4084765497278173,-0.11349762493488123,0.6757473541119344,-2.3915234502721825,0.7134976249348812,0.9242526458880657,-2.4084765497278173,0.7134976249348812,0.6757473541119344,-2.3915234502721825,-0.11349762493488123,0.9242526458880657,-2.4084765497278173,-0.48650237506511873,0.6757473541119344,-2.3915234502721825,,,,,,,,,,,,,,,,,,,,,,,,,,,,,,
48.160000000000004,-0.47956158147456684,0.9192686283603267,-2.406924562871279,-0.12043841852543313,0.6807313716396733,-2.393075437128721,0.7204384185254331,0.9192686283603267,-2.406924562871279,0.7204384185254331,0.6807313716396733,-2.393075437128721,-0.12043841852543313,0.9192686283603267,-2.406924562871279,-0.47956158147456684,0.6807313716396733,-2.393075437128721,,,,,,,,,,,,,,,,,,,,,,,,,,,,,,
48.17,-0.4727396460624056,0.9141669070958812,-2.405365742307202,-0.12726035393759436,0.6858330929041189,-2.3946342576927977,0.7272603539375944,0.9141669070958812,-2.405365742307202,0.7272603539375944,0.6858330929041189,-2.3946342576927977,-0.12726035393759436,0.9141669070958812,-2.405365742307202,-0.4727396460624056,0.6858330929041189,-2.3946342576927977,,,,,,,,,,,,,,,,,,,,,,,,,,,,,,
48.18,-0.466043301255252,0.9089525168776699,-2.403801626403282,-0.13395669874474797,0.6910474831223302,-2.3961983735967176,0.7339566987447479,0.9089525168776699,-2.403801626403282,0.7339566987447479,0.6910474831223302,-2.3961983735967176,-0.13395669874474797,0.9089525168776699,-2.403801626403282,-0.466043301255252,0.6910474831223302,-2.3961983735967176,,,,,,,,,,,,,,,,,,,,,,,,,,,,,,
48.19,-0.45947915553697105,0.9036306036792972,-2.402233758753078,-0.1405208444630289,0.6963693963207029,-2.397766241246922,0.7405208444630289,0.9036306036792972,-2.402233758753078,0.7405208444630289,0.6963693963207029,-2.397766241246922,-0.1405208444630289,0.9036306036792972,-2.402233758753078,-0.45947915553697105,0.6963693963207029,-2.397766241246922,,,,,,,,,,,,,,,,,,,,,,,,,,,,,,
48.2,-0.4530536869268822,0.8982064195865624,-2.400663686652668,-0.1469463130731178,0.7017935804134376,-2.399336313347332,0.7469463130731178,0.8982064195865624,-2.400663686652668,0.7469463130731178,0.7017935804134376,-2.399336313347332,-0.1469463130731178,0.8982064195865624,-2.400663686652668,-0.4530536869268822,0.7017935804134376,-2.399336313347332,,,,,,,,,,,,,,,,,,,,,,,,,,,,,,
48.21,-0.4467732365867588,0.8926853176143055,-2.399092959573661,-0.15322676341324118,0.7073146823856946,-2.400907040426339,0.7532267634132411,0.8926853176143055,-2.399092959573661,0.7532267634132411,0.7073146823856946,-2.400907040426339,-0.15322676341324118,0.8926853176143055,-2.399092959573661,-0.4467732365867588,0.7073146823856946,-2.400907040426339,,,,,,,,,,,,,,,,,,,,,,,,,,,,,,
48.22,-0.4406440025628274,0.8870727464235922,-2.397523127634045,-0.1593559974371726,0.7129272535764078,-2.4024768723659546,0.7593559974371726,0.8870727464235922,-2.397523127634045,0.7593559974371726,0.7129272535764078,-2.4024768723659546,-0.1593559974371726,0.8870727464235922,-2.397523127634045,-0.4406440025628274,0.7129272535764078,-2.4024768723659546,,,,,,,,,,,,,,,,,,,,,,,,,,,,,,
48.230000000000004,-0.4346720336690839,0.8813742449445788,-2.395955740068418,-0.1653279663309161,0.7186257550554213,-2.404044259931582,0.765327966330916,0.8813742449445788,-2.395955740068418,0.765327966330916,0.7186257550554213,-2.404044259931582,-0.1653279663309161,0.8813742449445788,-2.395955740068418,-0.4346720336690839,0.7186257550554213,-2.404044259931582,,,,,,,,,,,,,,,,,,,,,,,,,,,,,,
48.24,-0.4288632235178271,0.8755954369102419,-2.3943923436990753,-0.1711367764821729,0.7244045630897582,-2.4056076563009245,0.7711367764821728,0.8755954369102419,-2.3943923436990753,0.7711367764821728,0.7244045630897582,-2.4056076563009245,-0.1711367764821729,0.8755954369102419,-2.3943923436990753,-0.4288632235178271,0.7244045630897582,-2.4056076563009245,,,,,,,,,,,,,,,,,,,,,,,,,,,,,,
48.25,-0.4232233047033646,0.8697420253064224,-2.3928344814094813,-0.17677669529663537,0.7302579746935777,-2.4071655185905185,0.7767766952966353,0.8697420253064224,-2.3928344814094813,0.7767766952966353,0.7302579746935777,-2.4071655185905185,-0.17677669529663537,0.8697420253064224,-2.3928344814094813,-0.4232233047033646,0.7302579746935777,-2.4071655185905185,,,,,,,,,,,,,,,,,,,,,,,,,,,,,,
48.26,-0.4177578431446507,0.8638197867436823,-2.3912836906216324,-0.18224215685534925,0.7361802132563178,-2.4087163093783674,0.7822421568553493,0.8638197867436823,-2.3912836906216324,0.7822421568553493,0.7361802132563178,-2.4087163093783674,-0.18224215685534925,0.8638197867436823,-2.3912836906216324,-0.4177578431446507,0.7361802132563178,-2.4087163093783674,,,,,,,,,,,,,,,,,,,,,,,,,,,,,,
48.27,-0.41247223259238597,0.857834565756477,-2.3897415017788055,-0.18752776740761398,0.7421654342435231,-2.4102584982211943,0.787527767407614,0.857834565756477,-2.3897415017788055,0.787527767407614,0.7421654342435231,-2.4102584982211943,-0.18752776740761398,0.857834565756477,-2.3897415017788055,-0.41247223259238597,0.7421654342435231,-2.4102584982211943,,,,,,,,,,,,,,,,,,,,,,,,,,,,,,
48.28,-0.407371689306051,0.8517922690353217,-2.3882094368352,-0.19262831069394898,0.7482077309646784,-2.4117905631648,0.7926283106939489,0.8517922690353217,-2.3882094368352,0.7926283106939489,0.7482077309646784,-2.4117905631648,-0.19262831069394898,0.8517922690353217,-2.3882094368352,-0.407371689306051,0.7482077309646784,-2.4117905631648,,,,,,,,,,,,,,,,,,,,,,,,,,,,,,
48.29,-0.4024612469060777,0.8456988595975905,-2.3866890077539473,-0.19753875309392227,0.7543011404024096,-2.4133109922460525,0.7975387530939222,0.8456988595975905,-2.3866890077539473,0.7975387530939222,0.7543011404024096,-2.4133109922460525,-0.19753875309392227,0.8456988595975905,-2.3866890077539473,-0.4024612469060777,0.7543011404024096,-2.4133109922460525,,,,,,,,,,,,,,,,,,,,,,,,,,,,,,
48.300000000000004,-0.3977457514062611,0.8395603509027211,-2.3851817150149843,-0.20225424859373886,0.760439649097279,-2.4148182849850155,0.8022542485937388,0.8395603509027211,-2.3851817150149843,0.8022542485937388,0.760439649097279,-2.4148182849850155,-0.20225424859373886,0.8395603509027211,-2.3851817150149843,-0.3977457514062611,0.760439649097279,-2.4148182849850155,,,,,,,,,,,,,,,,,,,,,,,,,,,,,,
48.31,-0.3932298564313594,0.8333828009176952,-2.38368904613427,-0.2067701435686406,0.7666171990823049,-2.4163109538657297,0.8067701435686405,0.8333828009176952,-2.38368904613427,0.8067701435686405,0.7666171990823049,-2.4163109538657297,-0.2067701435686406,0.8333828009176952,-2.38368904613427,-0.3932298564313594,0.7666171990823049,-2.4163109538657297,,,,,,,,,,,,,,,,,,,,,,,,,,,,,,
48.32,-0.38891801862449776,0.8271723061385181,-2.3822124741957755,-0.21108198137550221,0.772827693861482,-2.4177875258042243,0.8110819813755021,0.8271723061385181,-2.3822124741957755,0.8110819813755021,0.772827693861482,-2.4177875258042243,-0.21108198137550221,0.8271723061385181,-2.3822124741957755,-0.38891801862449776,0.772827693861482,-2.4177875258042243,,,,,,,,,,,,,,,,,,,,,,,,,,,,,,
48.33,-0.3848144932490172,0.8209349955737346,-2.380753456397736,-0.21518550675098283,0.7790650044262655,-2.419246543602264,0.8151855067509828,0.8209349955737346,-2.380753456397736,0.8151855067509828,0.7790650044262655,-2.419246543602264,-0.21518550675098283,0.8209349955737346,-2.380753456397736,-0.3848144932490172,0.7790650044262655,-2.419246543602264,,,,,,,,,,,,,,,,,,,,,,,,,,,,,,
48.34,-0.3809233299890351,0.8146770246958267,-2.3793134326145675,-0.2190766700109649,0.7853229753041734,-2.4206865673854323,0.8190766700109648,0.8146770246958267,-2.3793134326145675,0.8190766700109648,0.7853229753041734,-2.4206865673854323,-0.2190766700109649,0.8146770246958267,-2.3793134326145675,-0.3809233299890351,0.7853229753041734,-2.4206865673854323,,,,,,,,,,,,,,,,,,,,,,,,,,,,,,
48.35,-0.37724836895290714,0.8084045693665227,-2.3778938239758887,-0.2227516310470928,0.7915954306334774,-2.422106176024111,0.8227516310470928,0.8084045693665227,-2.3778938239758887,0.8227516310470928,0.7915954306334774,-2.422106176024111,-0.2227516310470928,0.8084045693665227,-2.3778938239758887,-0.37724836895290714,0.7915954306334774,-2.422106176024111,,,,,,,,,,,,,,,,,,,,,,,,,,,,,,
48.36,-0.37379323688349564,0.8021238197419557,-2.3764960314640358,-0.22620676311650434,0.7978761802580444,-2.423503968535964,0.8262067631165043,0.8021238197419557,-2.3764960314640358,0.8262067631165043,0.7978761802580444,-2.423503968535964,-0.22620676311650434,0.8021238197419557,-2.3764960314640358,-0.37379323688349564,0.7978761802580444,-2.423503968535964,,,,,,,,,,,,,,,,,,,,,,,,,,,,,,
48.370000000000005,-0.3705613435790036,0.7958409741637095,-2.375121434531458,-0.22943865642099634,0.8041590258362906,-2.424878565468542,0.8294386564209963,0.7958409741637095,-2.375121434531458,0.8294386564209963,0.8041590258362906,-2.424878565468542,-0.22943865642099634,0.7958409741637095,-2.375121434531458,-0.3705613435790036,0.8041590258362906,-2.424878565468542,,,,,,,,,,,,,,,,,,,,,,,,,,,,,,
48.38,-0.3675558785279373,0.789562233041844,-2.3737713897393737,-0.23244412147206267,0.8104377669581561,-2.426228610260626,0.8324441214720626,0.789562233041844,-2.3737713897393737,0.8324441214720626,0.8104377669581561,-2.426228610260626,-0.23244412147206267,0.789562233041844,-2.3737713897393737,-0.3675558785279373,0.8104377669581561,-2.426228610260626,,,,,,,,,,,,,,,,,,,,,,,,,,,,,,
48.39,-0.36477980776144486,0.7832937927357995,-2.3724472294189978,-0.23522019223855511,0.8167062072642006,-2.427552770581002,0.8352201922385551,0.7832937927357995,-2.3724472294189978,0.8352201922385551,0.8167062072642006,-2.427552770581002,-0.23522019223855511,0.7832937927357995,-2.3724472294189978,-0.36477980776144486,0.8167062072642006,-2.427552770581002,,,,,,,,,,,,,,,,,,,,,,,,,,,,,,
48.4,-0.36223587092621146,0.7770418394393542,-2.371150260356698,-0.2377641290737885,0.8229581605606459,-2.4288497396433018,0.8377641290737885,0.7770418394393542,-2.371150260356698,0.8377641290737885,0.8229581605606459,-2.4288497396433018,-0.2377641290737885,0.7770418394393542,-2.371150260356698,-0.36223587092621146,0.8229581605606459,-2.4288497396433018,,,,,,,,,,,,,,,,,,,,,,,,,,,,,,
48.410000000000004,-0.35992657858076305,0.77081254307561,-2.369881762504355,-0.24007342141923696,0.8291874569243901,-2.4301182374956447,0.8400734214192369,0.77081254307561,-2.369881762504355,0.8400734214192369,0.8291874569243901,-2.4301182374956447,-0.24007342141923696,0.77081254307561,-2.369881762504355,-0.35992657858076305,0.8291874569243901,-2.4301182374956447,,,,,,,,,,,,,,,,,,,,,,,,,,,,,,
48.42,-0.35785420971784193,0.7646120512080113,-2.3686429877162025,-0.24214579028215805,0.8353879487919887,-2.4313570122837973,0.8421457902821581,0.7646120512080113,-2.3686429877162025,0.8421457902821581,0.8353879487919887,-2.4313570122837973,-0.24214579028215805,0.7646120512080113,-2.3686429877162025,-0.35785420971784193,0.8353879487919887,-2.4313570122837973,,,,,,,,,,,,,,,,,,,,,,,,,,,,,,
48.43,-0.35602080951531356,0.7584464829734315,-2.3674351585133957,-0.24397919048468641,0.8415535170265686,-2.432564841486604,0.8439791904846864,0.7584464829734315,-2.3674351585133957,0.8439791904846864,0.8415535170265686,-2.432564841486604,-0.24397919048468641,0.7584464829734315,-2.3674351585133957,-0.35602080951531356,0.8415535170265686,-2.432564841486604,,,,,,,,,,,,,,,,,,,,,,,,,,,,,,
48.44,-0.35442818731782877,0.75232192304334,-2.3662594668775356,-0.24557181268217118,0.8476780769566601,-2.433740533122464,0.8455718126821712,0.75232192304334,-2.3662594668775356,0.8455718126821712,0.8476780769566601,-2.433740533122464,-0.24557181268217118,0.75232192304334,-2.3662594668775356,-0.35442818731782877,0.8476780769566601,-2.433740533122464,,,,,,,,,,,,,,,,,,,,,,,,,,,,,,
48.45,-0.35307791485121576,0.7462444156189552,-2.3651170730743223,-0.24692208514878422,0.8537555843810449,-2.4348829269256775,0.8469220851487842,0.7462444156189552,-2.3651170730743223,0.8469220851487842,0.8537555843810449,-2.4348829269256775,-0.24692208514878422,0.7462444156189552,-2.3651170730743223,-0.35307791485121576,0.8537555843810449,-2.4348829269256775,,,,,,,,,,,,,,,,,,,,,,,,,,,,,,
