time,RPC,RPF,RPT,RMC,RMF,RMT,RAC,RAF,RAT,LPC,LPF,LPT,LMC,LMF,LMT,LAC,LAF,LAT,imu_roll,imu_pitch,imu_yaw,joint_sensor1,joint_sensor2,joint_sensor3,joint_sensor4,joint_sensor5,joint_sensor6,joint_sensor7,joint_sensor8,joint_sensor9,joint_sensor10,joint_sensor11,joint_sensor12,joint_sensor13,joint_sensor14,joint_sensor15,joint_sensor16,joint_sensor17,joint_sensor18,foot_contact1,foot_contact2,foot_contact3,foot_contact4,foot_contact5,foot_contact6,com_x,com_y,com_z
9.36,-0.8262067631165044,0.7978761802580446,-2.423503968535964,0.22620676311650445,0.8021238197419555,-2.3764960314640358,0.3737932368834955,0.7978761802580446,-2.423503968535964,0.3737932368834955,0.8021238197419555,-2.3764960314640358,0.22620676311650445,0.7978761802580446,-2.423503968535964,-0.8262067631165044,0.8021238197419555,-2.3764960314640358,,,,,,,,,,,,,,,,,,,,,,,,,,,,,,
9.370000000000001,-0.8294386564209953,0.8041590258362887,-2.4248785654685414,0.2294386564209954,0.7958409741637114,-2.3751214345314584,0.3705613435790046,0.8041590258362887,-2.4248785654685414,0.3705613435790046,0.7958409741637114,-2.3751214345314584,0.2294386564209954,0.8041590258362887,-2.4248785654685414,-0.8294386564209953,0.7958409741637114,-2.3751214345314584,,,,,,,,,,,,,,,,,,,,,,,,,,,,,,
9.38,-0.832444121472063,0.810437766958157,-2.4262286102606265,0.23244412147206311,0.7895622330418431,-2.3737713897393733,0.36755587852793686,0.810437766958157,-2.4262286102606265,0.36755587852793686,0.7895622330418431,-2.3737713897393733,0.23244412147206311,0.810437766958157,-2.4262286102606265,-0.832444121472063,0.7895622330418431,-2.3737713897393733,,,,,,,,,,,,,,,,,,,,,,,,,,,,,,
9.39,-0.8352201922385565,0.8167062072642036,-2.4275527705810025,0.23522019223855645,0.7832937927357965,-2.3724472294189973,0.36477980776144353,0.8167062072642036,-2.4275527705810025,0.36477980776144353,0.7832937927357965,-2.3724472294189973,0.23522019223855645,0.8167062072642036,-2.4275527705810025,-0.8352201922385565,0.7832937927357965,-2.3724472294189973,,,,,,,,,,,,,,,,,,,,,,,,,,,,,,
9.4,-0.8377641290737883,0.8229581605606454,-2.4288497396433013,0.2377641290737883,0.7770418394393547,-2.3711502603566985,0.3622358709262117,0.8229581605606454,-2.4288497396433013,0.3622358709262117,0.7770418394393547,-2.3711502603566985,0.2377641290737883,0.8229581605606454,-2.4288497396433013,-0.8377641290737883,0.7770418394393547,-2.3711502603566985,,,,,,,,,,,,,,,,,,,,,,,,,,,,,,
9.41,-0.8400734214192358,0.8291874569243869,-2.430118237495644,0.2400734214192358,0.7708125430756132,-2.369881762504356,0.35992657858076416,0.8291874569243869,-2.430118237495644,0.35992657858076416,0.7708125430756132,-2.369881762504356,0.2400734214192358,0.8291874569243869,-2.430118237495644,-0.8400734214192358,0.7708125430756132,-2.369881762504356,,,,,,,,,,,,,,,,,,,,,,,,,,,,,,
9.42,-0.8421457902821576,0.8353879487919876,-2.4313570122837973,0.24214579028215769,0.7646120512080125,-2.3686429877162025,0.3578542097178423,0.8353879487919876,-2.4313570122837973,0.3578542097178423,0.7646120512080125,-2.3686429877162025,0.24214579028215769,0.8353879487919876,-2.4313570122837973,-0.8421457902821576,0.7646120512080125,-2.3686429877162025,,,,,,,,,,,,,,,,,,,,,,,,,,,,,,
9.43,-0.8439791904846866,0.8415535170265696,-2.432564841486604,0.24397919048468666,0.7584464829734305,-2.3674351585133957,0.35602080951531334,0.8415535170265696,-2.432564841486604,0.35602080951531334,0.7584464829734305,-2.3674351585133957,0.24397919048468666,0.8415535170265696,-2.432564841486604,-0.8439791904846866,0.7584464829734305,-2.3674351585133957,,,,,,,,,,,,,,,,,,,,,,,,,,,,,,
9.44,-0.8455718126821721,0.8476780769566638,-2.433740533122465,0.24557181268217207,0.7523219230433363,-2.3662594668775347,0.3544281873178279,0.8476780769566638,-2.433740533122465,0.3544281873178279,0.7523219230433363,-2.3662594668775347,0.24557181268217207,0.8476780769566638,-2.433740533122465,-0.8455718126821721,0.7523219230433363,-2.3662594668775347,,,,,,,,,,,,,,,,,,,,,,,,,,,,,,
9.450000000000001,-0.8469220851487845,0.8537555843810465,-2.434882926925678,0.24692208514878455,0.7462444156189536,-2.365117073074322,0.3530779148512154,0.8537555843810465,-2.434882926925678,0.3530779148512154,0.7462444156189536,-2.365117073074322,0.24692208514878455,0.8537555843810465,-2.434882926925678,-0.8469220851487845,0.7462444156189536,-2.365117073074322,,,,,,,,,,,,,,,,,,,,,,,,,,,,,,
9.46,-0.8480286753286195,0.8597800415336341,-2.4359908954914817,0.2480286753286195,0.740219958466366,-2.364009104508518,0.3519713246713805,0.8597800415336341,-2.4359908954914817,0.3519713246713805,0.740219958466366,-2.364009104508518,0.2480286753286195,0.8597800415336341,-2.4359908954914817,-0.8480286753286195,0.740219958466366,-2.364009104508518,,,,,,,,,,,,,,,,,,,,,,,,,,,,,,
9.47,-0.84889049115077,0.8657455030025599,-2.437063345388669,0.24889049115077,0.7342544969974402,-2.362936654611331,0.35110950884923,0.8657455030025599,-2.437063345388669,0.35110950884923,0.7342544969974402,-2.362936654611331,0.24889049115077,0.8657455030025599,-2.437063345388669,-0.84889049115077,0.7342544969974402,-2.362936654611331,,,,,,,,,,,,,,,,,,,,,,,,,,,,,,
9.48,-0.8495066821070679,0.8716460815975736,-2.4380992182386696,0.24950668210706792,0.7283539184024265,-2.3619007817613302,0.35049331789293203,0.8716460815975736,-2.4380992182386696,0.35049331789293203,0.7283539184024265,-2.3619007817613302,0.24950668210706792,0.8716460815975736,-2.4380992182386696,-0.8495066821070679,0.7283539184024265,-2.3619007817613302,,,,,,,,,,,,,,,,,,,,,,,,,,,,,,
9.49,-0.8498766400914328,0.8774759541599861,-2.4390974917600428,0.24987664009143287,0.722524045840014,-2.360902508239957,0.35012335990856713,0.8774759541599861,-2.4390974917600428,0.35012335990856713,0.722524045840014,-2.360902508239957,0.24987664009143287,0.8774759541599861,-2.4390974917600428,-0.8498766400914328,0.722524045840014,-2.360902508239957,,,,,,,,,,,,,,,,,,,,,,,,,,,,,,
9.5,-0.85,0.883229367309428,-2.4400571807773463,0.25,0.7167706326905721,-2.3599428192226535,0.35,0.883229367309428,-2.4400571807773463,0.35,0.7167706326905721,-2.3599428192226535,0.25,0.883229367309428,-2.4400571807773463,-0.85,0.7167706326905721,-2.3599428192226535,,,,,,,,,,,,,,,,,,,,,,,,,,,,,,
9.51,-0.8498766400914328,0.8889006431217394,-2.440977338193385,0.2498766400914329,0.7110993568782606,-2.359022661806615,0.3501233599085671,0.8889006431217394,-2.440977338193385,0.3501233599085671,0.7110993568782606,-2.359022661806615,0.2498766400914329,0.8889006431217394,-2.440977338193385,-0.8498766400914328,0.7110993568782606,-2.359022661806615,,,,,,,,,,,,,,,,,,,,,,,,,,,,,,
9.52,-0.8495066821070679,0.8944841847323938,-2.4418570559238804,0.24950668210706795,0.7055158152676063,-2.3581429440761195,0.35049331789293203,0.8944841847323938,-2.4418570559238804,0.35049331789293203,0.7055158152676063,-2.3581429440761195,0.24950668210706795,0.8944841847323938,-2.4418570559238804,-0.8495066821070679,0.7055158152676063,-2.3581429440761195,,,,,,,,,,,,,,,,,,,,,,,,,,,,,,
9.53,-0.84889049115077,0.8999744818599318,-2.442695465793643,0.24889049115077005,0.7000255181400683,-2.357304534206357,0.3511095088492299,0.8999744818599318,-2.442695465793643,0.3511095088492299,0.7000255181400683,-2.357304534206357,0.24889049115077005,0.8999744818599318,-2.442695465793643,-0.84889049115077,0.7000255181400683,-2.357304534206357,,,,,,,,,,,,,,,,,,,,,,,,,,,,,,
9.540000000000001,-0.8480286753286194,0.90536611624394,-2.4434917403933527,0.24802867532861936,0.69463388375606,-2.356508259606647,0.3519713246713806,0.90536611624394,-2.4434917403933527,0.3519713246713806,0.69463388375606,-2.356508259606647,0.24802867532861936,0.90536611624394,-2.4434917403933527,-0.8480286753286194,0.69463388375606,-2.356508259606647,,,,,,,,,,,,,,,,,,,,,,,,,,,,,,
9.55,-0.8469220851487843,0.9106537669922203,-2.444245093896116,0.24692208514878436,0.6893462330077798,-2.3557549061038836,0.35307791485121565,0.9106537669922203,-2.444245093896116,0.35307791485121565,0.6893462330077798,-2.3557549061038836,0.24692208514878436,0.9106537669922203,-2.444245093896116,-0.8469220851487843,0.6893462330077798,-2.3557549061038836,,,,,,,,,,,,,,,,,,,,,,,,,,,,,,
9.56,-0.8455718126821722,0.9158322158318692,-2.4449547828329785,0.24557181268217218,0.6841677841681308,-2.3550452171670213,0.35442818731782777,0.9158322158318692,-2.4449547828329785,0.35442818731782777,0.6841677841681308,-2.3550452171670213,0.24557181268217218,0.9158322158318692,-2.4449547828329785,-0.8455718126821722,0.6841677841681308,-2.3550452171670213,,,,,,,,,,,,,,,,,,,,,,,,,,,,,,
9.57,-0.8439791904846867,0.9208963522590863,-2.445620106826642,0.24397919048468678,0.6791036477409138,-2.3543798931733577,0.35602080951531323,0.9208963522590863,-2.445620106826642,0.35602080951531323,0.6791036477409138,-2.3543798931733577,0.24397919048468678,0.9208963522590863,-2.445620106826642,-0.8439791904846867,0.6791036477409138,-2.3543798931733577,,,,,,,,,,,,,,,,,,,,,,,,,,,,,,
9.58,-0.8421457902821579,0.9258411785826159,-2.4462404092826495,0.24214579028215782,0.6741588214173841,-2.3537595907173503,0.35785420971784215,0.9258411785826159,-2.4462404092826495,0.35785420971784215,0.6741588214173841,-2.3537595907173503,0.24214579028215782,0.9258411785826159,-2.4462404092826495,-0.8421457902821579,0.6741588214173841,-2.3537595907173503,,,,,,,,,,,,,,,,,,,,,,,,,,,,,,
9.59,-0.8400734214192359,0.9306618148558752,-2.446815078037367,0.24007342141923596,0.6693381851441249,-2.3531849219626326,0.35992657858076404,0.9306618148558752,-2.446815078037367,0.35992657858076404,0.6693381851441249,-2.3531849219626326,0.24007342141923596,0.9306618148558752,-2.446815078037367,-0.8400734214192359,0.6693381851441249,-2.3531849219626326,,,,,,,,,,,,,,,,,,,,,,,,,,,,,,
9.6,-0.8377641290737885,0.9353535036928639,-2.447343545962115,0.2377641290737885,0.6646464963071362,-2.3526564540378847,0.36223587092621146,0.9353535036928639,-2.447343545962115,0.36223587092621146,0.6646464963071362,-2.3526564540378847,0.2377641290737885,0.9353535036928639,-2.447343545962115,-0.8377641290737885,0.6646464963071362,-2.3526564540378847,,,,,,,,,,,,,,,,,,,,,,,,,,,,,,
9.61,-0.8352201922385566,0.9399116149631341,-2.447825291522854,0.23522019223855664,0.660088385036866,-2.3521747084771456,0.36477980776144336,0.9399116149631341,-2.447825291522854,0.36477980776144336,0.660088385036866,-2.3521747084771456,0.23522019223855664,0.9399116149631341,-2.447825291522854,-0.8352201922385566,0.660088385036866,-2.3521747084771456,,,,,,,,,,,,,,,,,,,,,,,,,,,,,,
9.620000000000001,-0.8324441214720626,0.9443316503611698,-2.4482598392948773,0.23244412147206267,0.6556683496388303,-2.3517401607051225,0.3675558785279373,0.9443316503611698,-2.4482598392948773,0.3675558785279373,0.6556683496388303,-2.3517401607051225,0.23244412147206267,0.9443316503611698,-2.4482598392948773,-0.8324441214720626,0.6556683496388303,-2.3517401607051225,,,,,,,,,,,,,,,,,,,,,,,,,,,,,,
9.63,-0.8294386564209952,0.9486092478456702,-2.4486467604319975,0.22943865642099529,0.6513907521543298,-2.3513532395680024,0.3705613435790047,0.9486092478456702,-2.4486467604319975,0.3705613435790047,0.6513907521543298,-2.3513532395680024,0.22943865642099529,0.9486092478456702,-2.4486467604319975,-0.8294386564209952,0.6513907521543298,-2.3513532395680024,,,,,,,,,,,,,,,,,,,,,,,,,,,,,,
9.64,-0.8262067631165046,0.952740185944359,-2.4489856730897657,0.2262067631165047,0.647259814055641,-2.351014326910234,0.3737932368834953,0.952740185944359,-2.4489856730897657,0.3737932368834953,0.647259814055641,-2.351014326910234,0.2262067631165047,0.952740185944359,-2.4489856730897657,-0.8262067631165046,0.647259814055641,-2.351014326910234,,,,,,,,,,,,,,,,,,,,,,,,,,,,,,
9.65,-0.8227516310470919,0.9567203879200659,-2.4492762428023065,0.222751631047092,0.6432796120799342,-2.3507237571976933,0.377248368952908,0.9567203879200659,-2.4492762428023065,0.377248368952908,0.6432796120799342,-2.3507237571976933,0.222751631047092,0.9567203879200659,-2.4492762428023065,-0.8227516310470919,0.6432796120799342,-2.3507237571976933,,,,,,,,,,,,,,,,,,,,,,,,,,,,,,
9.66,-0.8190766700109662,0.9605459257939775,-2.449518182812394,0.21907667001096617,0.6394540742060226,-2.350481817187606,0.3809233299890338,0.9605459257939775,-2.449518182812394,0.3809233299890338,0.6394540742060226,-2.350481817187606,0.21907667001096617,0.9605459257939775,-2.449518182812394,-0.8190766700109662,0.6394540742060226,-2.350481817187606,,,,,,,,,,,,,,,,,,,,,,,,,,,,,,
9.67,-0.815185506750986,0.9642130242220758,-2.449711254354449,0.215185506750986,0.6357869757779243,-2.350288745645551,0.38481449324901396,0.9642130242220758,-2.449711254354449,0.38481449324901396,0.6357869757779243,-2.350288745645551,0.215185506750986,0.9642130242220758,-2.449711254354449,-0.815185506750986,0.6357869757779243,-2.350288745645551,,,,,,,,,,,,,,,,,,,,,,,,,,,,,,
9.68,-0.8110819813755041,0.9677180642209455,-2.4498552668901676,0.21108198137550413,0.6322819357790546,-2.350144733109832,0.3889180186244958,0.9677180642209455,-2.4498552668901676,0.3889180186244958,0.6322819357790546,-2.350144733109832,0.21108198137550413,0.9677180642209455,-2.4498552668901676,-0.8110819813755041,0.6322819357790546,-2.350144733109832,,,,,,,,,,,,,,,,,,,,,,,,,,,,,,
9.69,-0.8067701435686405,0.9710575867392764,-2.4499500782965655,0.2067701435686406,0.6289424132607236,-2.3500499217034343,0.3932298564313594,0.9710575867392764,-2.4499500782965655,0.3932298564313594,0.6289424132607236,-2.3500499217034343,0.2067701435686406,0.9710575867392764,-2.4499500782965655,-0.8067701435686405,0.6289424132607236,-2.3500499217034343,,,,,,,,,,,,,,,,,,,,,,,,,,,,,,
9.700000000000001,-0.8022542485937367,0.9742282960715284,-2.449995595006231,0.20225424859373678,0.6257717039284717,-2.350004404993769,0.3977457514062632,0.9742282960715284,-2.449995595006231,0.3977457514062632,0.6257717039284717,-2.350004404993769,0.20225424859373678,0.9742282960715284,-2.449995595006231,-0.8022542485937367,0.6257717039284717,-2.350004404993769,,,,,,,,,,,,,,,,,,,,,,,,,,,,,,
9.71,-0.7975387530939222,0.9772270631103949,-2.4499917720996662,0.19753875309392227,0.6227729368896052,-2.3500082279003336,0.4024612469060777,0.9772270631103949,-2.4499917720996662,0.4024612469060777,0.6227729368896052,-2.3500082279003336,0.19753875309392227,0.9772270631103949,-2.4499917720996662,-0.7975387530939222,0.6227729368896052,-2.3500082279003336,,,,,,,,,,,,,,,,,,,,,,,,,,,,,,
9.72,-0.7926283106939472,0.980050928434854,-2.449938613349619,0.19262831069394729,0.6199490715651461,-2.350061386650381,0.4073716893060527,0.980050928434854,-2.449938613349619,0.4073716893060527,0.6199490715651461,-2.350061386650381,0.19262831069394729,0.980050928434854,-2.449938613349619,-0.7926283106939472,0.6199490715651461,-2.350061386650381,,,,,,,,,,,,,,,,,,,,,,,,,,,,,,
9.73,-0.7875277674076145,0.98269710523076,-2.4498361712173575,0.1875277674076146,0.61730289476924,-2.3501638287826423,0.4124722325923854,0.98269710523076,-2.4498361712173575,0.4124722325923854,0.61730289476924,-2.3501638287826423,0.1875277674076146,0.98269710523076,-2.4498361712173575,-0.7875277674076145,0.61730289476924,-2.3501638287826423,,,,,,,,,,,,,,,,,,,,,,,,,,,,,,
9.74,-0.7822421568553529,0.9851629820410914,-2.4496845468008988,0.18224215685535292,0.6148370179589087,-2.350315453199101,0.41775784314464703,0.9851629820410914,-2.4496845468008988,0.41775784314464703,0.6148370179589087,-2.350315453199101,0.18224215685535292,0.9851629820410914,-2.4496845468008988,-0.7822421568553529,0.6148370179589087,-2.350315453199101,,,,,,,,,,,,,,,,,,,,,,,,,,,,,,
9.75,-0.7767766952966373,0.9874461253431461,-2.449483889735235,0.17677669529663725,0.612553874656854,-2.3505161102647647,0.4232233047033627,0.9874461253431461,-2.449483889735235,0.4232233047033627,0.612553874656854,-2.3505161102647647,0.17677669529663725,0.9874461253431461,-2.449483889735235,-0.7767766952966373,0.612553874656854,-2.3505161102647647,,,,,,,,,,,,,,,,,,,,,,,,,,,,,,
9.76,-0.7711367764821722,0.9895442819501326,-2.4492343980446654,0.17113677648217224,0.6104557180498675,-2.3507656019553345,0.42886322351782774,0.9895442819501326,-2.4492343980446654,0.42886322351782774,0.6104557180498675,-2.3507656019553345,0.17113677648217224,0.9895442819501326,-2.4492343980446654,-0.7711367764821722,0.6104557180498675,-2.3507656019553345,,,,,,,,,,,,,,,,,,,,,,,,,,,,,,
9.77,-0.7653279663309134,0.9914553812347928,-2.4489363179473664,0.16532796633091343,0.6085446187652073,-2.3510636820526334,0.4346720336690866,0.9914553812347928,-2.4489363179473664,0.4346720336690866,0.6085446187652073,-2.3510636820526334,0.16532796633091343,0.9914553812347928,-2.4489363179473664,-0.7653279663309134,0.6085446187652073,-2.3510636820526334,,,,,,,,,,,,,,,,,,,,,,,,,,,,,,
9.78,-0.7593559974371733,0.9931775371728625,-2.4485899436124066,0.15935599743717327,0.6068224628271376,-2.3514100563875933,0.4406440025628267,0.9931775371728625,-2.4485899436124066,0.4406440025628267,0.6068224628271376,-2.3514100563875933,0.15935599743717327,0.9931775371728625,-2.4485899436124066,-0.7593559974371733,0.6068224628271376,-2.3514100563875933,,,,,,,,,,,,,,,,,,,,,,,,,,,,,,
9.790000000000001,-0.7532267634132439,0.9947090502043492,-2.4481956168694365,0.15322676341324398,0.6052909497956509,-2.3518043831305633,0.446773236586756,0.9947090502043492,-2.4481956168694365,0.446773236586756,0.6052909497956509,-2.3518043831305633,0.15322676341324398,0.9947090502043492,-2.4481956168694365,-0.7532267634132439,0.6052909497956509,-2.3518043831305633,,,,,,,,,,,,,,,,,,,,,,,,,,,,,,
9.8,-0.7469463130731178,0.9960484089107928,-2.4477537268713436,0.1469463130731178,0.6039515910892073,-2.352246273128656,0.4530536869268822,0.9960484089107928,-2.4477537268713436,0.4530536869268822,0.6039515910892073,-2.352246273128656,0.1469463130731178,0.9960484089107928,-2.4477537268713436,-0.7469463130731178,0.6039515910892073,-2.352246273128656,,,,,,,,,,,,,,,,,,,,,,,,,,,,,,
9.81,-0.7405208444630326,0.9971942915068527,-2.447264709710206,0.14052084446303256,0.6028057084931474,-2.352735290289794,0.4594791555369674,0.9971942915068527,-2.447264709710206,0.4594791555369674,0.6028057084931474,-2.352735290289794,0.14052084446303256,0.9971942915068527,-2.447264709710206,-0.7405208444630326,0.6028057084931474,-2.352735290289794,,,,,,,,,,,,,,,,,,,,,,,,,,,,,,
9.82,-0.7339566987447494,0.9981455671447503,-2.446729047986922,0.13395669874474947,0.6018544328552498,-2.353270952013078,0.4660433012552505,0.9981455671447503,-2.446729047986922,0.4660433012552505,0.6018544328552498,-2.353270952013078,0.13395669874474947,0.9981455671447503,-2.446729047986922,-0.7339566987447494,0.6018544328552498,-2.353270952013078,,,,,,,,,,,,,,,,,,,,,,,,,,,,,,
9.83,-0.7272603539375928,0.9989012970302806,-2.446147270334941,0.12726035393759283,0.6010987029697195,-2.353852729665059,0.47273964606240715,0.9989012970302806,-2.446147270334941,0.47273964606240715,0.6010987029697195,-2.353852729665059,0.12726035393759283,0.9989012970302806,-2.446147270334941,-0.7272603539375928,0.6010987029697195,-2.353852729665059,,,,,,,,,,,,,,,,,,,,,,,,,,,,,,
9.84,-0.7204384185254292,0.9994607353492866,-2.445519950898567,0.12043841852542923,0.6005392646507135,-2.354480049101433,0.47956158147457073,0.9994607353492866,-2.445519950898567,0.47956158147457073,0.6005392646507135,-2.354480049101433,0.12043841852542923,0.9994607353492866,-2.445519950898567,-0.7204384185254292,0.6005392646507135,-2.354480049101433,,,,,,,,,,,,,,,,,,,,,,,,,,,,,,
9.85,-0.7134976249348876,0.9998233300036893,-2.4448477087663463,0.11349762493488756,0.6001766699963108,-2.3551522912336535,0.4865023750651124,0.9998233300036893,-2.4448477087663463,0.4865023750651124,0.6001766699963108,-2.3551522912336535,0.11349762493488756,0.9998233300036893,-2.4448477087663463,-0.7134976249348876,0.6001766699963108,-2.3551522912336535,,,,,,,,,,,,,,,,,,,,,,,,,,,,,,
9.86,-0.7064448228912686,0.9999887231563412,-2.444131207360103,0.10644482289126868,0.6000112768436588,-2.355868792639897,0.4935551771087313,0.9999887231563412,-2.444131207360103,0.4935551771087313,0.6000112768436588,-2.355868792639897,0.10644482289126868,0.9999887231563412,-2.444131207360103,-0.7064448228912686,0.6000112768436588,-2.355868792639897,,,,,,,,,,,,,,,,,,,,,,,,,,,,,,
9.870000000000001,-0.6992869726586944,0.9999567515841691,-2.44337115378022,0.09928697265869449,0.600043248415831,-2.3566288462197797,0.5007130273413055,0.9999567515841691,-2.44337115378022,0.5007130273413055,0.600043248415831,-2.3566288462197797,0.09928697265869449,0.9999567515841691,-2.44337115378022,-0.6992869726586944,0.600043248415831,-2.3566288462197797,,,,,,,,,,,,,,,,,,,,,,,,,,,,,,
9.88,-0.6920311381711692,0.9997274468392545,-2.442568298107819,0.09203113817116927,0.6002725531607456,-2.357431701892181,0.5079688618288307,0.9997274468392545,-2.442568298107819,0.5079688618288307,0.6002725531607456,-2.357431701892181,0.09203113817116927,0.9997274468392545,-2.442568298107819,-0.6920311381711692,0.6002725531607456,-2.357431701892181,,,,,,,,,,,,,,,,,,,,,,,,,,,,,,
9.89,-0.6846844800613231,0.9993010352176964,-2.4417234326645185,0.08468448006132309,0.6006989647823037,-2.3582765673354813,0.5153155199386769,0.9993010352176964,-2.4417234326645185,0.5153155199386769,0.6006989647823037,-2.3582765673354813,0.08468448006132309,0.9993010352176964,-2.4417234326645185,-0.6846844800613231,0.6006989647823037,-2.3582765673354813,,,,,,,,,,,,,,,,,,,,,,,,,,,,,,
9.9,-0.6772542485937367,0.9986779375362841,-2.4408373912305095,0.07725424859373672,0.601322062463716,-2.3591626087694904,0.5227457514062632,0.9986779375362841,-2.4408373912305095,0.5227457514062632,0.601322062463716,-2.3591626087694904,0.07725424859373672,0.9986779375362841,-2.4408373912305095,-0.6772542485937367,0.601322062463716,-2.3591626087694904,,,,,,,,,,,,,,,,,,,,,,,,,,,,,,
9.91,-0.6697477765098077,0.9978587687172017,-2.4399110482217137,0.06974777650980765,0.6021412312827984,-2.360088951778286,0.5302522234901923,0.9978587687172017,-2.4399110482217137,0.5302522234901923,0.6021412312827984,-2.360088951778286,0.06974777650980765,0.9978587687172017,-2.4399110482217137,-0.6697477765098077,0.6021412312827984,-2.360088951778286,,,,,,,,,,,,,,,,,,,,,,,,,,,,,,
9.92,-0.6621724717912136,0.9968443371811738,-2.4389453178268425,0.06217247179121365,0.6031556628188263,-2.3610546821731573,0.5378275282087863,0.9968443371811738,-2.4389453178268425,0.5378275282087863,0.6031556628188263,-2.3610546821731573,0.06217247179121365,0.9968443371811738,-2.4389453178268425,-0.6621724717912136,0.6031556628188263,-2.3610546821731573,,,,,,,,,,,,,,,,,,,,,,,,,,,,,,
9.93,-0.654535810349136,0.9956356440496533,-2.4379411531052013,0.054535810349136064,0.6043643559503468,-2.3620588468947985,0.545464189650864,0.9956356440496533,-2.4379411531052013,0.545464189650864,0.6043643559503468,-2.3620588468947985,0.054535810349136064,0.9956356440496533,-2.4379411531052013,-0.654535810349136,0.6043643559503468,-2.3620588468947985,,,,,,,,,,,,,,,,,,,,,,,,,,,,,,
9.94,-0.6468453286464321,0.9942338821568331,-2.436899545046136,0.046845328646432066,0.605766117843167,-2.3631004549538637,0.5531546713535679,0.9942338821568331,-2.436899545046136,0.5531546713535679,0.605766117843167,-2.3631004549538637,0.046845328646432066,0.9942338821568331,-2.436899545046136,-0.6468453286464321,0.605766117843167,-2.3631004549538637,,,,,,,,,,,,,,,,,,,,,,,,,,,,,,
9.950000000000001,-0.6391086162600573,0.9926404348724647,-2.4358215215910466,0.03910861626005736,0.6073595651275354,-2.3641784784089532,0.5608913837399426,0.9926404348724647,-2.4358215215910466,0.5608913837399426,0.6073595651275354,-2.3641784784089532,0.03910861626005736,0.9926404348724647,-2.4358215215910466,-0.6391086162600573,0.6073595651275354,-2.3641784784089532,,,,,,,,,,,,,,,,,,,,,,,,,,,,,,
9.96,-0.6313333083910753,0.9908568747366389,-2.4347081466189313,0.03133330839107531,0.6091431252633612,-2.3652918533810685,0.5686666916089247,0.9908568747366389,-2.4347081466189313,0.5686666916089247,0.6091431252633612,-2.3652918533810685,0.03133330839107531,0.9908568747366389,-2.4347081466189313,-0.6313333083910753,0.6091431252633612,-2.3652918533810685,,,,,,,,,,,,,,,,,,,,,,,,,,,,,,
9.97,-0.6235270783296283,0.9888849619078777,-2.4335605188964684,0.023527078329628307,0.6111150380921224,-2.3664394811035314,0.5764729216703717,0.9888849619078777,-2.4335605188964684,0.5764729216703717,0.6111150380921224,-2.3664394811035314,0.023527078329628307,0.9888849619078777,-2.4335605188964684,-0.6235270783296283,0.6111150380921224,-2.3664394811035314,,,,,,,,,,,,,,,,,,,,,,,,,,,,,,
9.98,-0.6156976298823286,0.9867266424260711,-2.4323797709936654,0.015697629882328562,0.613273357573929,-2.3676202290063344,0.5843023701176714,0.9867266424260711,-2.4323797709936654,0.5843023701176714,0.613273357573929,-2.3676202290063344,0.015697629882328562,0.9867266424260711,-2.4323797709936654,-0.6156976298823286,0.613273357573929,-2.3676202290063344,,,,,,,,,,,,,,,,,,,,,,,,,,,,,,
9.99,-0.6078526897695319,0.9843840462919707,-2.4311670681661486,0.00785268976953189,0.6156159537080294,-2.3688329318338512,0.5921473102304681,0.9843840462919707,-2.4311670681661486,0.5921473102304681,0.6156159537080294,-2.3688329318338512,0.00785268976953189,0.9843840462919707,-2.4311670681661486,-0.6078526897695319,0.6156159537080294,-2.3688329318338512,,,,,,,,,,,,,,,,,,,,,,,,,,,,,,
10.0,-0.6000000000000003,0.9818594853651365,-2.4299236072051977,3.061616997868383e-16,0.6181405146348636,-2.370076392794802,0.5999999999999996,0.9818594853651365,-2.4299236072051977,0.5999999999999996,0.6181405146348636,-2.370076392794802,3.061616997868383e-16,0.9818594853651365,-2.4299236072051977,-0.6000000000000003,0.6181405146348636,-2.370076392794802,,,,,,,,,,,,,,,,,,,,,,,,,,,,,,
10.01,-0.5921473102304687,0.9791554510824086,-2.4286506152566565,-0.007852689769531278,0.6208445489175914,-2.3713493847433433,0.6078526897695312,0.9791554510824086,-2.4286506152566565,0.6078526897695312,0.6208445489175914,-2.3713493847433433,-0.007852689769531278,0.9791554510824086,-2.4286506152566565,-0.5921473102304687,0.6208445489175914,-2.3713493847433433,,,,,,,,,,,,,,,,,,,,,,,,,,,,,,
10.02,-0.584302370117672,0.9762746119991617,-2.427349348609887,-0.015697629882327948,0.6237253880008384,-2.3726506513901127,0.6156976298823279,0.9762746119991617,-2.427349348609887,0.6156976298823279,0.6237253880008384,-2.3726506513901127,-0.015697629882327948,0.9762746119991617,-2.427349348609887,-0.584302370117672,0.6237253880008384,-2.3726506513901127,,,,,,,,,,,,,,,,,,,,,,,,,,,,,,
10.03,-0.5764729216703722,0.9732198111557632,-2.426021091457967,-0.0235270783296277,0.6267801888442369,-2.373978908542033,0.6235270783296277,0.9732198111557632,-2.426021091457967,0.6235270783296277,0.6267801888442369,-2.373978908542033,-0.0235270783296277,0.9732198111557632,-2.426021091457967,-0.5764729216703722,0.6267801888442369,-2.373978908542033,,,,,,,,,,,,,,,,,,,,,,,,,,,,,,
10.040000000000001,-0.5686666916089235,0.9699940632718353,-2.4246671546303418,-0.03133330839107646,0.6300059367281647,-2.375332845369658,0.6313333083910765,0.9699940632718353,-2.4246671546303418,0.6313333083910765,0.6300059367281647,-2.375332845369658,-0.03133330839107646,0.9699940632718353,-2.4246671546303418,-0.5686666916089235,0.6300059367281647,-2.375332845369658,,,,,,,,,,,,,,,,,,,,,,,,,,,,,,
10.05,-0.5608913837399423,0.96660055177109,-2.4232888742991983,-0.039108616260057634,0.63339944822891,-2.3767111257008016,0.6391086162600577,0.96660055177109,-2.4232888742991983,0.6391086162600577,0.63339944822891,-2.3767111257008016,-0.039108616260057634,0.96660055177109,-2.4232888742991983,-0.5608913837399423,0.63339944822891,-2.3767111257008016,,,,,,,,,,,,,,,,,,,,,,,,,,,,,,
10.06,-0.5531546713535685,0.963042625639675,-2.4218876106608214,-0.04684532864643146,0.6369573743603251,-2.3781123893391785,0.6468453286464314,0.963042625639675,-2.4218876106608214,0.6468453286464314,0.6369573743603251,-2.3781123893391785,-0.04684532864643146,0.963042625639675,-2.4218876106608214,-0.5531546713535685,0.6369573743603251,-2.3781123893391785,,,,,,,,,,,,,,,,,,,,,,,,,,,,,,
10.07,-0.5454641896508645,0.9593237961211284,-2.420464746593246,-0.05453581034913547,0.6406762038788717,-2.379535253406754,0.6545358103491354,0.9593237961211284,-2.420464746593246,0.6545358103491354,0.6406762038788717,-2.379535253406754,-0.05453581034913547,0.9593237961211284,-2.420464746593246,-0.5454641896508645,0.6406762038788717,-2.379535253406754,,,,,,,,,,,,,,,,,,,,,,,,,,,,,,
10.08,-0.5378275282087869,0.9554477332512061,-2.4190216862915217,-0.06217247179121305,0.644552266748794,-2.380978313708478,0.6621724717912131,0.9554477332512061,-2.4190216862915217,0.6621724717912131,0.644552266748794,-2.380978313708478,-0.06217247179121305,0.9554477332512061,-2.4190216862915217,-0.5378275282087869,0.644552266748794,-2.380978313708478,,,,,,,,,,,,,,,,,,,,,,,,,,,,,,
10.09,-0.530252223490193,0.9514182622359963,-2.417559853881943,-0.06974777650980706,0.6485817377640037,-2.3824401461180567,0.669747776509807,0.9514182622359963,-2.417559853881943,0.669747776509807,0.6485817377640037,-2.3824401461180567,-0.06974777650980706,0.9514182622359963,-2.417559853881943,-0.530252223490193,0.6485817377640037,-2.3824401461180567,,,,,,,,,,,,,,,,,,,,,,,,,,,,,,
10.1,-0.5227457514062639,0.9472393596769089,-2.4160806920166107,-0.07725424859373614,0.6527606403230912,-2.383919307983389,0.6772542485937361,0.9472393596769089,-2.4160806920166107,0.6772542485937361,0.6527606403230912,-2.383919307983389,-0.07725424859373614,0.9472393596769089,-2.4160806920166107,-0.5227457514062639,0.6527606403230912,-2.383919307983389,,,,,,,,,,,,,,,,,,,,,,,,,,,,,,
10.11,-0.5153155199386774,0.9429151496462427,-2.4145856604497027,-0.08468448006132251,0.6570848503537574,-2.385414339550297,0.6846844800613225,0.9429151496462427,-2.4145856604497027,0.6846844800613225,0.6570848503537574,-2.385414339550297,-0.08468448006132251,0.9429151496462427,-2.4145856604497027,-0.5153155199386774,0.6570848503537574,-2.385414339550297,,,,,,,,,,,,,,,,,,,,,,,,,,,,,,
10.120000000000001,-0.5079688618288305,0.9384498996172308,-2.413076234596879,-0.09203113817116954,0.6615501003827693,-2.386923765403121,0.6920311381711695,0.9384498996172308,-2.413076234596879,0.6920311381711695,0.6615501003827693,-2.386923765403121,-0.09203113817116954,0.9384498996172308,-2.413076234596879,-0.5079688618288305,0.6615501003827693,-2.386923765403121,,,,,,,,,,,,,,,,,,,,,,,,,,,,,,
10.13,-0.5007130273413044,0.9338480162525555,-2.4115539040792213,-0.09928697265869556,0.6661519837474446,-2.3884460959207785,0.6992869726586955,0.9338480162525555,-2.4115539040792213,0.6992869726586955,0.6661519837474446,-2.3884460959207785,-0.09928697265869556,0.9338480162525555,-2.4115539040792213,-0.5007130273413044,0.6661519837474446,-2.3884460959207785,,,,,,,,,,,,,,,,,,,,,,,,,,,,,,
10.14,-0.49355517710873187,0.9291140410555059,-2.4100201712531573,-0.10644482289126812,0.6708859589444942,-2.3899798287468426,0.7064448228912681,0.9291140410555059,-2.4100201712531573,0.7064448228912681,0.6708859589444942,-2.3899798287468426,-0.10644482289126812,0.9291140410555059,-2.4100201712531573,-0.49355517710873187,0.6708859589444942,-2.3899798287468426,,,,,,,,,,,,,,,,,,,,,,,,,,,,,,
10.15,-0.48650237506511296,0.9242526458880616,-2.408476549727816,-0.11349762493488702,0.6757473541119385,-2.391523450272184,0.713497624934887,0.9242526458880616,-2.408476549727816,0.713497624934887,0.6757473541119385,-2.391523450272184,-0.11349762493488702,0.9242526458880616,-2.408476549727816,-0.48650237506511296,0.6757473541119385,-2.391523450272184,,,,,,,,,,,,,,,,,,,,,,,,,,,,,,
10.16,-0.4795615814745713,0.9192686283603294,-2.40692456287128,-0.1204384185254287,0.6807313716396707,-2.39307543712872,0.7204384185254287,0.9192686283603294,-2.40692456287128,0.7204384185254287,0.6807313716396707,-2.39307543712872,-0.1204384185254287,0.9192686283603294,-2.40692456287128,-0.4795615814745713,0.6807313716396707,-2.39307543712872,,,,,,,,,,,,,,,,,,,,,,,,,,,,,,
10.17,-0.4727396460624077,0.9141669070958828,-2.4053657423072026,-0.12726035393759227,0.6858330929041173,-2.3946342576927973,0.7272603539375923,0.9141669070958828,-2.4053657423072026,0.7272603539375923,0.6858330929041173,-2.3946342576927973,-0.12726035393759227,0.9141669070958828,-2.4053657423072026,-0.4727396460624077,0.6858330929041173,-2.3946342576927973,,,,,,,,,,,,,,,,,,,,,,,,,,,,,,
10.18,-0.466043301255251,0.9089525168776691,-2.4038016264032818,-0.13395669874474897,0.691047483122331,-2.396198373596718,0.733956698744749,0.9089525168776691,-2.4038016264032818,0.733956698744749,0.691047483122331,-2.396198373596718,-0.13395669874474897,0.9089525168776691,-2.4038016264032818,-0.466043301255251,0.691047483122331,-2.396198373596718,,,,,,,,,,,,,,,,,,,,,,,,,,,,,,
10.19,-0.45947915553696717,0.9036306036792939,-2.4022337587530767,-0.14052084446303278,0.6963693963207062,-2.397766241246923,0.7405208444630328,0.9036306036792939,-2.4022337587530767,0.7405208444630328,0.6963693963207062,-2.397766241246923,-0.14052084446303278,0.9036306036792939,-2.4022337587530767,-0.45947915553696717,0.6963693963207062,-2.397766241246923,,,,,,,,,,,,,,,,,,,,,,,,,,,,,,
10.200000000000001,-0.4530536869268812,0.8982064195865617,-2.4006636866526674,-0.14694631307311876,0.7017935804134384,-2.3993363133473324,0.7469463130731188,0.8982064195865617,-2.4006636866526674,0.7469463130731188,0.7017935804134384,-2.3993363133473324,-0.14694631307311876,0.8982064195865617,-2.4006636866526674,-0.4530536869268812,0.7017935804134384,-2.3993363133473324,,,,,,,,,,,,,,,,,,,,,,,,,,,,,,
10.21,-0.44677323658675505,0.8926853176143021,-2.39909295957366,-0.1532267634132449,0.707314682385698,-2.4009070404263397,0.7532267634132449,0.8926853176143021,-2.39909295957366,0.7532267634132449,0.707314682385698,-2.4009070404263397,-0.1532267634132449,0.8926853176143021,-2.39909295957366,-0.44677323658675505,0.707314682385698,-2.4009070404263397,,,,,,,,,,,,,,,,,,,,,,,,,,,,,,
10.22,-0.4406440025628279,0.8870727464235927,-2.397523127634045,-0.15935599743717213,0.7129272535764074,-2.4024768723659546,0.7593559974371721,0.8870727464235927,-2.397523127634045,0.7593559974371721,0.7129272535764074,-2.4024768723659546,-0.15935599743717213,0.8870727464235927,-2.397523127634045,-0.4406440025628279,0.7129272535764074,-2.4024768723659546,,,,,,,,,,,,,,,,,,,,,,,,,,,,,,
10.23,-0.434672033669087,0.8813742449445818,-2.395955740068419,-0.16532796633091296,0.7186257550554183,-2.404044259931581,0.7653279663309129,0.8813742449445818,-2.395955740068419,0.7653279663309129,0.7186257550554183,-2.404044259931581,-0.16532796633091296,0.8813742449445818,-2.395955740068419,-0.434672033669087,0.7186257550554183,-2.404044259931581,,,,,,,,,,,,,,,,,,,,,,,,,,,,,,
10.24,-0.4288632235178275,0.8755954369102423,-2.3943923436990753,-0.17113677648217246,0.7244045630897578,-2.4056076563009245,0.7711367764821724,0.8755954369102423,-2.3943923436990753,0.7711367764821724,0.7244045630897578,-2.4056076563009245,-0.17113677648217246,0.8755954369102423,-2.3943923436990753,-0.4288632235178275,0.7244045630897578,-2.4056076563009245,,,,,,,,,,,,,,,,,,,,,,,,,,,,,,
10.25,-0.4232233047033638,0.8697420253064215,-2.392834481409481,-0.1767766952966362,0.7302579746935786,-2.407165518590519,0.7767766952966362,0.8697420253064215,-2.392834481409481,0.7767766952966362,0.7302579746935786,-2.407165518590519,-0.1767766952966362,0.8697420253064215,-2.392834481409481,-0.4232233047033638,0.7302579746935786,-2.407165518590519,,,,,,,,,,,,,,,,,,,,,,,,,,,,,,
10.26,-0.4177578431446475,0.8638197867436787,-2.3912836906216315,-0.1822421568553525,0.7361802132563214,-2.4087163093783683,0.7822421568553525,0.8638197867436787,-2.3912836906216315,0.7822421568553525,0.7361802132563214,-2.4087163093783683,-0.1822421568553525,0.8638197867436787,-2.3912836906216315,-0.4177578431446475,0.7361802132563214,-2.4087163093783683,,,,,,,,,,,,,,,,,,,,,,,,,,,,,,
10.27,-0.4124722325923852,0.8578345657564761,-2.3897415017788055,-0.18752776740761476,0.742165434243524,-2.4102584982211943,0.7875277674076148,0.8578345657564761,-2.3897415017788055,0.7875277674076148,0.742165434243524,-2.4102584982211943,-0.18752776740761476,0.8578345657564761,-2.3897415017788055,-0.4124722325923852,0.742165434243524,-2.4102584982211943,,,,,,,,,,,,,,,,,,,,,,,,,,,,,,
10.28,-0.40737168930605366,0.8517922690353249,-2.3882094368352007,-0.19262831069394631,0.7482077309646752,-2.411790563164799,0.7926283106939462,0.8517922690353249,-2.3882094368352007,0.7926283106939462,0.7482077309646752,-2.411790563164799,-0.19262831069394631,0.8517922690353249,-2.3882094368352007,-0.40737168930605366,0.7482077309646752,-2.411790563164799,,,,,,,,,,,,,,,,,,,,,,,,,,,,,,
10.290000000000001,-0.402461246906077,0.8456988595975895,-2.386689007753947,-0.19753875309392296,0.7543011404024106,-2.413310992246053,0.797538753093923,0.8456988595975895,-2.386689007753947,0.797538753093923,0.7543011404024106,-2.413310992246053,-0.19753875309392296,0.8456988595975895,-2.386689007753947,-0.402461246906077,0.7543011404024106,-2.413310992246053,,,,,,,,,,,,,,,,,,,,,,,,,,,,,,
10.3,-0.39774575140626256,0.839560350902723,-2.3851817150149848,-0.20225424859373745,0.7604396490972771,-2.414818284985015,0.8022542485937374,0.839560350902723,-2.3851817150149848,0.8022542485937374,0.7604396490972771,-2.414818284985015,-0.20225424859373745,0.839560350902723,-2.3851817150149848,-0.39774575140626256,0.7604396490972771,-2.414818284985015,,,,,,,,,,,,,,,,,,,,,,,,,,,,,,
10.31,-0.3932298564313597,0.8333828009176957,-2.38368904613427,-0.20677014356864026,0.7666171990823044,-2.4163109538657297,0.8067701435686403,0.8333828009176957,-2.38368904613427,0.8067701435686403,0.7666171990823044,-2.4163109538657297,-0.20677014356864026,0.8333828009176957,-2.38368904613427,-0.3932298564313597,0.7666171990823044,-2.4163109538657297,,,,,,,,,,,,,,,,,,,,,,,,,,,,,,
10.32,-0.38891801862449615,0.8271723061385158,-2.382212474195775,-0.2110819813755038,0.7728276938614843,-2.4177875258042247,0.8110819813755038,0.8271723061385158,-2.382212474195775,0.8110819813755038,0.7728276938614843,-2.4177875258042247,-0.2110819813755038,0.8271723061385158,-2.382212474195775,-0.38891801862449615,0.7728276938614843,-2.4177875258042247,,,,,,,,,,,,,,,,,,,,,,,,,,,,,,
10.33,-0.38481449324901384,0.8209349955737294,-2.380753456397735,-0.21518550675098613,0.7790650044262707,-2.4192465436022648,0.8151855067509861,0.8209349955737294,-2.380753456397735,0.8151855067509861,0.7790650044262707,-2.4192465436022648,-0.21518550675098613,0.8209349955737294,-2.380753456397735,-0.38481449324901384,0.7790650044262707,-2.4192465436022648,,,,,,,,,,,,,,,,,,,,,,,,,,,,,,
10.34,-0.38092332998903455,0.8146770246958258,-2.379313432614567,-0.21907667001096545,0.7853229753041743,-2.4206865673854328,0.8190766700109654,0.8146770246958258,-2.379313432614567,0.8190766700109654,0.7853229753041743,-2.4206865673854328,-0.21907667001096545,0.8146770246958258,-2.379313432614567,-0.38092332998903455,0.7853229753041743,-2.4206865673854328,,,,,,,,,,,,,,,,,,,,,,,,,,,,,,
10.35,-0.37724836895290825,0.8084045693665247,-2.377893823975889,-0.22275163104709172,0.7915954306334754,-2.4221061760241107,0.8227516310470917,0.8084045693665247,-2.377893823975889,0.8227516310470917,0.7915954306334754,-2.4221061760241107,-0.22275163104709172,0.8084045693665247,-2.377893823975889,-0.37724836895290825,0.7915954306334754,-2.4221061760241107,,,,,,,,,,,,,,,,,,,,,,,,,,,,,,
10.36,-0.3737932368834952,0.8021238197419548,-2.3764960314640353,-0.2262067631165048,0.7978761802580453,-2.4235039685359645,0.8262067631165048,0.8021238197419548,-2.3764960314640353,0.8262067631165048,0.7978761802580453,-2.4235039685359645,-0.2262067631165048,0.8021238197419548,-2.3764960314640353,-0.3737932368834952,0.7978761802580453,-2.4235039685359645,,,,,,,,,,,,,,,,,,,,,,,,,,,,,,
10.370000000000001,-0.3705613435790046,0.7958409741637114,-2.3751214345314584,-0.2294386564209954,0.8041590258362887,-2.4248785654685414,0.8294386564209953,0.7958409741637114,-2.3751214345314584,0.8294386564209953,0.8041590258362887,-2.4248785654685414,-0.2294386564209954,0.7958409741637114,-2.3751214345314584,-0.3705613435790046,0.8041590258362887,-2.4248785654685414,,,,,,,,,,,,,,,,,,,,,,,,,,,,,,
10.38,-0.3675558785279369,0.7895622330418431,-2.3737713897393733,-0.2324441214720631,0.810437766958157,-2.4262286102606265,0.832444121472063,0.7895622330418431,-2.3737713897393733,0.832444121472063,0.810437766958157,-2.4262286102606265,-0.2324441214720631,0.7895622330418431,-2.3737713897393733,-0.3675558785279369,0.810437766958157,-2.4262286102606265,,,,,,,,,,,,,,,,,,,,,,,,,,,,,,
10.39,-0.36477980776144386,0.7832937927357971,-2.3724472294189973,-0.23522019223855611,0.816706207264203,-2.4275527705810025,0.835220192238556,0.7832937927357971,-2.3724472294189973,0.835220192238556,0.816706207264203,-2.4275527705810025,-0.23522019223855611,0.7832937927357971,-2.3724472294189973,-0.36477980776144386,0.816706207264203,-2.4275527705810025,,,,,,,,,,,,,,,,,,,,,,,,,,,,,,
10.4,-0.3622358709262117,0.7770418394393547,-2.371150260356698,-0.2377641290737883,0.8229581605606454,-2.4288497396433018,0.8377641290737883,0.7770418394393547,-2.371150260356698,0.8377641290737883,0.8229581605606454,-2.4288497396433018,-0.2377641290737883,0.7770418394393547,-2.371150260356698,-0.3622358709262117,0.8229581605606454,-2.4288497396433018,,,,,,,,,,,,,,,,,,,,,,,,,,,,,,
10.41,-0.35992657858076416,0.7708125430756132,-2.3698817625043556,-0.2400734214192358,0.8291874569243869,-2.4301182374956443,0.8400734214192358,0.7708125430756132,-2.3698817625043556,0.8400734214192358,0.8291874569243869,-2.4301182374956443,-0.2400734214192358,0.7708125430756132,-2.3698817625043556,-0.35992657858076416,0.8291874569243869,-2.4301182374956443,,,,,,,,,,,,,,,,,,,,,,,,,,,,,,
10.42,-0.3578542097178421,0.7646120512080118,-2.3686429877162025,-0.2421457902821579,0.8353879487919883,-2.4313570122837973,0.8421457902821579,0.7646120512080118,-2.3686429877162025,0.8421457902821579,0.8353879487919883,-2.4313570122837973,-0.2421457902821579,0.7646120512080118,-2.3686429877162025,-0.3578542097178421,0.8353879487919883,-2.4313570122837973,,,,,,,,,,,,,,,,,,,,,,,,,,,,,,
10.43,-0.35602080951531334,0.7584464829734306,-2.3674351585133957,-0.24397919048468666,0.8415535170265694,-2.432564841486604,0.8439791904846866,0.7584464829734306,-2.3674351585133957,0.8439791904846866,0.8415535170265694,-2.432564841486604,-0.24397919048468666,0.7584464829734306,-2.3674351585133957,-0.35602080951531334,0.8415535170265694,-2.432564841486604,,,,,,,,,,,,,,,,,,,,,,,,,,,,,,
10.44,-0.3544281873178279,0.7523219230433363,-2.3662594668775347,-0.24557181268217207,0.8476780769566638,-2.433740533122465,0.8455718126821721,0.7523219230433363,-2.3662594668775347,0.8455718126821721,0.8476780769566638,-2.433740533122465,-0.24557181268217207,0.7523219230433363,-2.3662594668775347,-0.3544281873178279,0.8476780769566638,-2.433740533122465,,,,,,,,,,,,,,,,,,,,,,,,,,,,,,
10.450000000000001,-0.35307791485121554,0.7462444156189543,-2.365117073074322,-0.24692208514878441,0.8537555843810458,-2.434882926925678,0.8469220851487844,0.7462444156189543,-2.365117073074322,0.8469220851487844,0.8537555843810458,-2.434882926925678,-0.24692208514878441,0.7462444156189543,-2.365117073074322,-0.35307791485121554,0.8537555843810458,-2.434882926925678,,,,,,,,,,,,,,,,,,,,,,,,,,,,,,
10.46,-0.3519713246713805,0.740219958466366,-2.364009104508518,-0.2480286753286195,0.8597800415336341,-2.4359908954914817,0.8480286753286195,0.740219958466366,-2.364009104508518,0.8480286753286195,0.8597800415336341,-2.4359908954914817,-0.2480286753286195,0.740219958466366,-2.364009104508518,-0.3519713246713805,0.8597800415336341,-2.4359908954914817,,,,,,,,,,,,,,,,,,,,,,,,,,,,,,
10.47,-0.35110950884922987,0.7342544969974396,-2.362936654611331,-0.24889049115077008,0.8657455030025605,-2.437063345388669,0.8488904911507701,0.7342544969974396,-2.362936654611331,0.8488904911507701,0.8657455030025605,-2.437063345388669,-0.24889049115077008,0.7342544969974396,-2.362936654611331,-0.35110950884922987,0.8657455030025605,-2.437063345388669,,,,,,,,,,,,,,,,,,,,,,,,,,,,,,
10.48,-0.35049331789293214,0.7283539184024271,-2.3619007817613302,-0.24950668210706783,0.871646081597573,-2.4380992182386696,0.8495066821070678,0.7283539184024271,-2.3619007817613302,0.8495066821070678,0.871646081597573,-2.4380992182386696,-0.24950668210706783,0.7283539184024271,-2.3619007817613302,-0.35049331789293214,0.871646081597573,-2.4380992182386696,,,,,,,,,,,,,,,,,,,,,,,,,,,,,,
10.49,-0.35012335990856713,0.7225240458400141,-2.360902508239957,-0.24987664009143287,0.877475954159986,-2.4390974917600428,0.8498766400914328,0.7225240458400141,-2.360902508239957,0.8498766400914328,0.877475954159986,-2.4390974917600428,-0.24987664009143287,0.7225240458400141,-2.360902508239957,-0.35012335990856713,0.877475954159986,-2.4390974917600428,,,,,,,,,,,,,,,,,,,,,,,,,,,,,,
10.5,-0.35,0.7167706326905715,-2.359942819222653,-0.25,0.8832293673094286,-2.440057180777347,0.85,0.7167706326905715,-2.359942819222653,0.85,0.8832293673094286,-2.440057180777347,-0.25,0.7167706326905715,-2.359942819222653,-0.35,0.8832293673094286,-2.440057180777347,,,,,,,,,,,,,,,,,,,,,,,,,,,,,,
10.51,-0.350123359908567,0.7110993568782613,-2.359022661806615,-0.24987664009143293,0.8889006431217388,-2.440977338193385,0.8498766400914329,0.7110993568782613,-2.359022661806615,0.8498766400914329,0.8889006431217388,-2.440977338193385,-0.24987664009143293,0.7110993568782613,-2.359022661806615,-0.350123359908567,0.8889006431217388,-2.440977338193385,,,,,,,,,,,,,,,,,,,,,,,,,,,,,,
10.52,-0.35049331789293203,0.7055158152676063,-2.3581429440761195,-0.24950668210706795,0.8944841847323938,-2.4418570559238804,0.8495066821070679,0.7055158152676063,-2.3581429440761195,0.8495066821070679,0.8944841847323938,-2.4418570559238804,-0.24950668210706795,0.7055158152676063,-2.3581429440761195,-0.35049331789293203,0.8944841847323938,-2.4418570559238804,,,,,,,,,,,,,,,,,,,,,,,,,,,,,,
10.53,-0.3511095088492299,0.7000255181400683,-2.357304534206357,-0.24889049115077005,0.8999744818599318,-2.442695465793643,0.84889049115077,0.7000255181400683,-2.357304534206357,0.84889049115077,0.8999744818599318,-2.442695465793643,-0.24889049115077005,0.7000255181400683,-2.357304534206357,-0.3511095088492299,0.8999744818599318,-2.442695465793643,,,,,,,,,,,,,,,,,,,,,,,,,,,,,,
10.540000000000001,-0.3519713246713805,0.6946338837560606,-2.356508259606647,-0.24802867532861947,0.9053661162439395,-2.4434917403933527,0.8480286753286195,0.6946338837560606,-2.356508259606647,0.8480286753286195,0.9053661162439395,-2.4434917403933527,-0.24802867532861947,0.6946338837560606,-2.356508259606647,-0.3519713246713805,0.9053661162439395,-2.4434917403933527,,,,,,,,,,,,,,,,,,,,,,,,,,,,,,
10.55,-0.3530779148512156,0.6893462330077804,-2.3557549061038836,-0.2469220851487844,0.9106537669922197,-2.444245093896116,0.8469220851487844,0.6893462330077804,-2.3557549061038836,0.8469220851487844,0.9106537669922197,-2.444245093896116,-0.2469220851487844,0.6893462330077804,-2.3557549061038836,-0.3530779148512156,0.9106537669922197,-2.444245093896116,,,,,,,,,,,,,,,,,,,,,,,,,,,,,,
10.56,-0.35442818731782794,0.6841677841681303,-2.355045217167021,-0.24557181268217204,0.9158322158318698,-2.444954782832979,0.8455718126821721,0.6841677841681303,-2.355045217167021,0.8455718126821721,0.9158322158318698,-2.444954782832979,-0.24557181268217204,0.6841677841681303,-2.355045217167021,-0.35442818731782794,0.9158322158318698,-2.444954782832979,,,,,,,,,,,,,,,,,,,,,,,,,,,,,,
10.57,-0.356020809515313,0.6791036477409145,-2.354379893173358,-0.243979190484687,0.9208963522590856,-2.4456201068266417,0.843979190484687,0.6791036477409145,-2.354379893173358,0.843979190484687,0.9208963522590856,-2.4456201068266417,-0.243979190484687,0.6791036477409145,-2.354379893173358,-0.356020809515313,0.9208963522590856,-2.4456201068266417,,,,,,,,,,,,,,,,,,,,,,,,,,,,,,
10.58,-0.3578542097178421,0.6741588214173837,-2.3537595907173503,-0.24214579028215785,0.9258411785826164,-2.4462404092826495,0.8421457902821579,0.6741588214173837,-2.3537595907173503,0.8421457902821579,0.9258411785826164,-2.4462404092826495,-0.24214579028215785,0.6741588214173837,-2.3537595907173503,-0.3578542097178421,0.9258411785826164,-2.4462404092826495,,,,,,,,,,,,,,,,,,,,,,,,,,,,,,
10.59,-0.35992657858076427,0.6693381851441244,-2.3531849219626326,-0.2400734214192357,0.9306618148558757,-2.446815078037367,0.8400734214192357,0.6693381851441244,-2.3531849219626326,0.8400734214192357,0.9306618148558757,-2.446815078037367,-0.2400734214192357,0.6693381851441244,-2.3531849219626326,-0.35992657858076427,0.9306618148558757,-2.446815078037367,,,,,,,,,,,,,,,,,,,,,,,,,,,,,,
10.6,-0.36223587092621123,0.6646464963071368,-2.3526564540378847,-0.23776412907378877,0.9353535036928633,-2.447343545962115,0.8377641290737887,0.6646464963071368,-2.3526564540378847,0.8377641290737887,0.9353535036928633,-2.447343545962115,-0.23776412907378877,0.6646464963071368,-2.3526564540378847,-0.36223587092621123,0.9353535036928633,-2.447343545962115,,,,,,,,,,,,,,,,,,,,,,,,,,,,,,
10.61,-0.36477980776144336,0.6600883850368665,-2.352174708477146,-0.23522019223855664,0.9399116149631336,-2.4478252915228538,0.8352201922385566,0.6600883850368665,-2.352174708477146,0.8352201922385566,0.9399116149631336,-2.4478252915228538,-0.23522019223855664,0.6600883850368665,-2.352174708477146,-0.36477980776144336,0.9399116149631336,-2.4478252915228538,,,,,,,,,,,,,,,,,,,,,,,,,,,,,,
10.620000000000001,-0.367555878527937,0.6556683496388308,-2.3517401607051225,-0.232444121472063,0.9443316503611693,-2.4482598392948773,0.832444121472063,0.6556683496388308,-2.3517401607051225,0.832444121472063,0.9443316503611693,-2.4482598392948773,-0.232444121472063,0.6556683496388308,-2.3517401607051225,-0.367555878527937,0.9443316503611693,-2.4482598392948773,,,,,,,,,,,,,,,,,,,,,,,,,,,,,,
10.63,-0.3705613435790047,0.6513907521543303,-2.3513532395680024,-0.22943865642099529,0.9486092478456698,-2.4486467604319975,0.8294386564209952,0.6513907521543303,-2.3513532395680024,0.8294386564209952,0.9486092478456698,-2.4486467604319975,-0.22943865642099529,0.6513907521543303,-2.3513532395680024,-0.3705613435790047,0.9486092478456698,-2.4486467604319975,,,,,,,,,,,,,,,,,,,,,,,,,,,,,,
10.64,-0.37379323688349525,0.6472598140556416,-2.351014326910234,-0.22620676311650473,0.9527401859443585,-2.4489856730897657,0.8262067631165046,0.6472598140556416,-2.351014326910234,0.8262067631165046,0.9527401859443585,-2.4489856730897657,-0.22620676311650473,0.6472598140556416,-2.351014326910234,-0.37379323688349525,0.9527401859443585,-2.4489856730897657,,,,,,,,,,,,,,,,,,,,,,,,,,,,,,
10.65,-0.37724836895290836,0.6432796120799338,-2.3507237571976933,-0.22275163104709161,0.9567203879200663,-2.4492762428023065,0.8227516310470916,0.6432796120799338,-2.3507237571976933,0.8227516310470916,0.9567203879200663,-2.4492762428023065,-0.22275163104709161,0.6432796120799338,-2.3507237571976933,-0.37724836895290836,0.9567203879200663,-2.4492762428023065,,,,,,,,,,,,,,,,,,,,,,,,,,,,,,
10.66,-0.3809233299890338,0.6394540742060222,-2.350481817187606,-0.21907667001096617,0.9605459257939779,-2.449518182812394,0.8190766700109662,0.6394540742060222,-2.350481817187606,0.8190766700109662,0.9605459257939779,-2.449518182812394,-0.21907667001096617,0.6394540742060222,-2.350481817187606,-0.3809233299890338,0.9605459257939779,-2.449518182812394,,,,,,,,,,,,,,,,,,,,,,,,,,,,,,
10.67,-0.38481449324901396,0.635786975777924,-2.350288745645551,-0.21518550675098602,0.9642130242220761,-2.449711254354449,0.815185506750986,0.635786975777924,-2.350288745645551,0.815185506750986,0.9642130242220761,-2.449711254354449,-0.21518550675098602,0.635786975777924,-2.350288745645551,-0.38481449324901396,0.9642130242220761,-2.449711254354449,,,,,,,,,,,,,,,,,,,,,,,,,,,,,,
10.68,-0.3889180186244963,0.6322819357790542,-2.350144733109832,-0.21108198137550366,0.9677180642209459,-2.4498552668901676,0.8110819813755037,0.6322819357790542,-2.350144733109832,0.8110819813755037,0.9677180642209459,-2.4498552668901676,-0.21108198137550366,0.6322819357790542,-2.350144733109832,-0.3889180186244963,0.9677180642209459,-2.4498552668901676,,,,,,,,,,,,,,,,,,,,,,,,,,,,,,
10.69,-0.3932298564313589,0.628942413260724,-2.3500499217034343,-0.20677014356864112,0.9710575867392761,-2.4499500782965655,0.8067701435686411,0.628942413260724,-2.3500499217034343,0.8067701435686411,0.9710575867392761,-2.4499500782965655,-0.20677014356864112,0.628942413260724,-2.3500499217034343,-0.3932298564313589,0.9710575867392761,-2.4499500782965655,,,,,,,,,,,,,,,,,,,,,,,,,,,,,,
10.700000000000001,-0.3977457514062637,0.6257717039284714,-2.350004404993769,-0.20225424859373625,0.9742282960715287,-2.449995595006231,0.8022542485937363,0.6257717039284714,-2.350004404993769,0.8022542485937363,0.9742282960715287,-2.449995595006231,-0.20225424859373625,0.6257717039284714,-2.350004404993769,-0.3977457514062637,0.9742282960715287,-2.449995595006231,,,,,,,,,,,,,,,,,,,,,,,,,,,,,,
10.71,-0.40246124690607715,0.6227729368896056,-2.3500082279003336,-0.19753875309392283,0.9772270631103945,-2.4499917720996662,0.7975387530939229,0.6227729368896056,-2.3500082279003336,0.7975387530939229,0.9772270631103945,-2.4499917720996662,-0.19753875309392283,0.6227729368896056,-2.3500082279003336,-0.40246124690607715,0.9772270631103945,-2.4499917720996662,,,,,,,,,,,,,,,,,,,,,,,,,,,,,,
10.72,-0.4073716893060527,0.6199490715651463,-2.350061386650381,-0.19262831069394729,0.9800509284348538,-2.449938613349619,0.7926283106939472,0.6199490715651463,-2.350061386650381,0.7926283106939472,0.9800509284348538,-2.449938613349619,-0.19262831069394729,0.6199490715651463,-2.350061386650381,-0.4073716893060527,0.9800509284348538,-2.449938613349619,,,,,,,,,,,,,,,,,,,,,,,,,,,,,,
10.73,-0.4124722325923854,0.6173028947692404,-2.350163828782642,-0.1875277674076146,0.9826971052307597,-2.449836171217358,0.7875277674076145,0.6173028947692404,-2.350163828782642,0.7875277674076145,0.9826971052307597,-2.449836171217358,-0.1875277674076146,0.6173028947692404,-2.350163828782642,-0.4124722325923854,0.9826971052307597,-2.449836171217358,,,,,,,,,,,,,,,,,,,,,,,,,,,,,,
10.74,-0.4177578431446465,0.614837017958909,-2.350315453199101,-0.18224215685535353,0.9851629820410911,-2.4496845468008988,0.7822421568553535,0.614837017958909,-2.350315453199101,0.7822421568553535,0.9851629820410911,-2.4496845468008988,-0.18224215685535353,0.614837017958909,-2.350315453199101,-0.4177578431446465,0.9851629820410911,-2.4496845468008988,,,,,,,,,,,,,,,,,,,,,,,,,,,,,,
10.75,-0.4232233047033627,0.6125538746568537,-2.3505161102647647,-0.17677669529663725,0.9874461253431464,-2.449483889735235,0.7767766952966373,0.6125538746568537,-2.3505161102647647,0.7767766952966373,0.9874461253431464,-2.449483889735235,-0.17677669529663725,0.6125538746568537,-2.3505161102647647,-0.4232233047033627,0.9874461253431464,-2.449483889735235,,,,,,,,,,,,,,,,,,,,,,,,,,,,,,
10.76,-0.4288632235178277,0.6104557180498673,-2.3507656019553345,-0.17113677648217226,0.9895442819501328,-2.4492343980446654,0.7711367764821723,0.6104557180498673,-2.3507656019553345,0.7711367764821723,0.9895442819501328,-2.4492343980446654,-0.17113677648217226,0.6104557180498673,-2.3507656019553345,-0.4288632235178277,0.9895442819501328,-2.4492343980446654,,,,,,,,,,,,,,,,,,,,,,,,,,,,,,
10.77,-0.43467203366908586,0.6085446187652075,-2.3510636820526334,-0.16532796633091412,0.9914553812347926,-2.4489363179473664,0.765327966330914,0.6085446187652075,-2.3510636820526334,0.765327966330914,0.9914553812347926,-2.4489363179473664,-0.16532796633091412,0.6085446187652075,-2.3510636820526334,-0.43467203366908586,0.9914553812347926,-2.4489363179473664,,,,,,,,,,,,,,,,,,,,,,,,,,,,,,
10.78,-0.44064400256282665,0.6068224628271378,-2.3514100563875933,-0.1593559974371733,0.9931775371728623,-2.4485899436124066,0.7593559974371733,0.6068224628271378,-2.3514100563875933,0.7593559974371733,0.9931775371728623,-2.4485899436124066,-0.1593559974371733,0.6068224628271378,-2.3514100563875933,-0.44064400256282665,0.9931775371728623,-2.4485899436124066,,,,,,,,,,,,,,,,,,,,,,,,,,,,,,
10.790000000000001,-0.4467732365867567,0.6052909497956507,-2.3518043831305633,-0.1532267634132433,0.9947090502043494,-2.4481956168694365,0.7532267634132432,0.6052909497956507,-2.3518043831305633,0.7532267634132432,0.9947090502043494,-2.4481956168694365,-0.1532267634132433,0.6052909497956507,-2.3518043831305633,-0.4467732365867567,0.9947090502043494,-2.4481956168694365,,,,,,,,,,,,,,,,,,,,,,,,,,,,,,
10.8,-0.4530536869268814,0.6039515910892074,-2.352246273128656,-0.14694631307311856,0.9960484089107927,-2.4477537268713436,0.7469463130731185,0.6039515910892074,-2.352246273128656,0.7469463130731185,0.9960484089107927,-2.4477537268713436,-0.14694631307311856,0.6039515910892074,-2.352246273128656,-0.4530536869268814,0.9960484089107927,-2.4477537268713436,,,,,,,,,,,,,,,,,,,,,,,,,,,,,,
10.81,-0.4594791555369674,0.6028057084931475,-2.352735290289794,-0.1405208444630326,0.9971942915068526,-2.447264709710206,0.7405208444630326,0.6028057084931475,-2.352735290289794,0.7405208444630326,0.9971942915068526,-2.447264709710206,-0.1405208444630326,0.6028057084931475,-2.352735290289794,-0.4594791555369674,0.9971942915068526,-2.447264709710206,,,,,,,,,,,,,,,,,,,,,,,,,,,,,,
10.82,-0.46604330125525123,0.6018544328552496,-2.3532709520130783,-0.13395669874474875,0.9981455671447504,-2.4467290479869215,0.7339566987447488,0.6018544328552496,-2.3532709520130783,0.7339566987447488,0.9981455671447504,-2.4467290479869215,-0.13395669874474875,0.6018544328552496,-2.3532709520130783,-0.46604330125525123,0.9981455671447504,-2.4467290479869215,,,,,,,,,,,,,,,,,,,,,,,,,,,,,,
10.83,-0.47273964606240637,0.6010987029697195,-2.353852729665059,-0.1272603539375936,0.9989012970302806,-2.446147270334941,0.7272603539375936,0.6010987029697195,-2.353852729665059,0.7272603539375936,0.9989012970302806,-2.446147270334941,-0.1272603539375936,0.6010987029697195,-2.353852729665059,-0.47273964606240637,0.9989012970302806,-2.446147270334941,,,,,,,,,,,,,,,,,,,,,,,,,,,,,,
10.84,-0.47956158147457073,0.6005392646507135,-2.354480049101433,-0.12043841852542926,0.9994607353492866,-2.445519950898567,0.7204384185254292,0.6005392646507135,-2.354480049101433,0.7204384185254292,0.9994607353492866,-2.445519950898567,-0.12043841852542926,0.6005392646507135,-2.354480049101433,-0.47956158147457073,0.9994607353492866,-2.445519950898567,,,,,,,,,,,,,,,,,,,,,,,,,,,,,,
10.85,-0.4865023750651132,0.6001766699963108,-2.3551522912336535,-0.1134976249348868,0.9998233300036893,-2.4448477087663463,0.7134976249348868,0.6001766699963108,-2.3551522912336535,0.7134976249348868,0.9998233300036893,-2.4448477087663463,-0.1134976249348868,0.6001766699963108,-2.3551522912336535,-0.4865023750651132,0.9998233300036893,-2.4448477087663463,,,,,,,,,,,,,,,,,,,,,,,,,,,,,,
10.86,-0.4935551771087305,0.6000112768436588,-2.355868792639897,-0.10644482289126951,0.9999887231563412,-2.444131207360103,0.7064448228912695,0.6000112768436588,-2.355868792639897,0.7064448228912695,0.9999887231563412,-2.444131207360103,-0.10644482289126951,0.6000112768436588,-2.355868792639897,-0.4935551771087305,0.9999887231563412,-2.444131207360103,,,,,,,,,,,,,,,,,,,,,,,,,,,,,,
10.870000000000001,-0.5007130273413054,0.600043248415831,-2.3566288462197797,-0.09928697265869452,0.9999567515841691,-2.44337115378022,0.6992869726586946,0.600043248415831,-2.3566288462197797,0.6992869726586946,0.9999567515841691,-2.44337115378022,-0.09928697265869452,0.600043248415831,-2.3566288462197797,-0.5007130273413054,0.9999567515841691,-2.44337115378022,,,,,,,,,,,,,,,,,,,,,,,,,,,,,,
10.88,-0.5079688618288315,0.6002725531607456,-2.357431701892181,-0.09203113817116848,0.9997274468392545,-2.442568298107819,0.6920311381711685,0.6002725531607456,-2.357431701892181,0.6920311381711685,0.9997274468392545,-2.442568298107819,-0.09203113817116848,0.6002725531607456,-2.357431701892181,-0.5079688618288315,0.9997274468392545,-2.442568298107819,,,,,,,,,,,,,,,,,,,,,,,,,,,,,,
10.89,-0.5153155199386769,0.6006989647823036,-2.358276567335481,-0.08468448006132312,0.9993010352176965,-2.441723432664519,0.6846844800613231,0.6006989647823036,-2.358276567335481,0.6846844800613231,0.9993010352176965,-2.441723432664519,-0.08468448006132312,0.6006989647823036,-2.358276567335481,-0.5153155199386769,0.9993010352176965,-2.441723432664519,,,,,,,,,,,,,,,,,,,,,,,,,,,,,,
